[{"siteId": "b5aaf886-72ef-4751-b111-466212d3fe8f", "name": "Trelleborgsområdet", "status": "active", "type": "", "description": "", "KartaTx": "01CNO", "area": "0", "projects": ["d0b2f329-c394-464b-b5ab-e1e205585a7c"], "extent": {"geometry": {"type": "Point", "coordinates": [13.246586268566501, 55.39508867206729], "decimalLongitude": 13.246586268566501, "decimalLatitude": 55.39508867206729, "areaKmSq": 0, "aream2": 0, "centre": [13.246586268566501, 55.39508867206729]}, "source": "Point"}, "geoIndex": {"type": "Point", "coordinates": [13.246586268566501, 55.39508867206729]}, "transectParts": [{"name": "1 - Albäcksskogen", "description": "", "geometry": {"type": "Point", "decimalLongitude": 13.099578632313099, "decimalLatitude": 55.3773320622477, "coordinates": [13.099578632313099, 55.3773320622477]}, "type": "none"}, {"name": "2 - Skåre", "description": "", "geometry": {"type": "Point", "decimalLongitude": 13.066548774936301, "decimalLatitude": 55.3743674159968, "coordinates": [13.066548774936301, 55.3743674159968]}, "type": "none"}, {"name": "3 - Rängvägen", "description": "", "geometry": {"type": "Point", "decimalLongitude": 13.0636577670412, "decimalLatitude": 55.4124744334775, "coordinates": [13.0636577670412, 55.4124744334775]}, "type": "none"}, {"name": "4 - Håslöv", "description": "", "geometry": {"type": "Point", "decimalLongitude": 13.050084147301302, "decimalLatitude": 55.4386234748934, "coordinates": [13.050084147301302, 55.4386234748934]}, "type": "none"}, {"name": "5 - N Värplinge", "description": "", "geometry": {"type": "Point", "decimalLongitude": 13.100696656735101, "decimalLatitude": 55.4425033656452, "coordinates": [13.100696656735101, 55.4425033656452]}, "type": "none"}, {"name": "6 - Odinsborg", "description": "", "geometry": {"type": "Point", "decimalLongitude": 13.135324329980001, "decimalLatitude": 55.414276937927, "coordinates": [13.135324329980001, 55.414276937927]}, "type": "none"}, {"name": "7 - V Alstad", "description": "", "geometry": {"type": "Point", "decimalLongitude": 13.201564896709302, "decimalLatitude": 55.441943698899, "coordinates": [13.201564896709302, 55.441943698899]}, "type": "none"}, {"name": "8 - Fru Alstad", "description": "", "geometry": {"type": "Point", "decimalLongitude": 13.2413129046648, "decimalLatitude": 55.443233036272105, "coordinates": [13.2413129046648, 55.443233036272105]}, "type": "none"}, {"name": "9 - V Virestad", "description": "", "geometry": {"type": "Point", "decimalLongitude": 13.237268193773101, "decimalLatitude": 55.4130471958362, "coordinates": [13.237268193773101, 55.4130471958362]}, "type": "none"}, {"name": "10 - Hagalund", "description": "", "geometry": {"type": "Point", "decimalLongitude": 13.3045950668057, "decimalLatitude": 55.4258635878278, "coordinates": [13.3045950668057, 55.4258635878278]}, "type": "none"}, {"name": "11 - Vallåker", "description": "", "geometry": {"type": "Point", "decimalLongitude": 13.366795687319401, "decimalLatitude": 55.4333109693614, "coordinates": [13.366795687319401, 55.4333109693614]}, "type": "none"}, {"name": "12 - Jordberga", "description": "", "geometry": {"type": "Point", "decimalLongitude": 13.3957398049591, "decimalLatitude": 55.4121412471516, "coordinates": [13.3957398049591, 55.4121412471516]}, "type": "none"}, {"name": "13 - Annexdal", "description": "", "geometry": {"type": "Point", "decimalLongitude": 13.4218713751332, "decimalLatitude": 55.3821048313851, "coordinates": [13.4218713751332, 55.3821048313851]}, "type": "none"}, {"name": "14 - Vipphög", "description": "", "geometry": {"type": "Point", "decimalLongitude": 13.4146602646917, "decimalLatitude": 55.3535892932129, "coordinates": [13.4146602646917, 55.3535892932129]}, "type": "none"}, {"name": "15 - Hemmesdynge", "description": "", "geometry": {"type": "Point", "decimalLongitude": 13.424318464426301, "decimalLatitude": 55.3723769035608, "coordinates": [13.424318464426301, 55.3723769035608]}, "type": "none"}, {"name": "16 - Smygehuk", "description": "", "geometry": {"type": "Point", "decimalLongitude": 13.360073599847901, "decimalLatitude": 55.337575136058206, "coordinates": [13.360073599847901, 55.337575136058206]}, "type": "none"}, {"name": "17 - V Torp", "description": "", "geometry": {"type": "Point", "decimalLongitude": 13.3138768817628, "decimalLatitude": 55.355016028976, "coordinates": [13.3138768817628, 55.355016028976]}, "type": "none"}, {"name": "18 - Gislöv", "description": "", "geometry": {"type": "Point", "decimalLongitude": 13.2620918762628, "decimalLatitude": 55.3512079749106, "coordinates": [13.2620918762628, 55.3512079749106]}, "type": "none"}, {"name": "19 - Metso Min", "description": "", "geometry": {"type": "Point", "decimalLongitude": 13.2077365945438, "decimalLatitude": 55.3687177008171, "coordinates": [13.2077365945438, 55.3687177008171]}, "type": "none"}, {"name": "20 - Trelleborg", "description": "", "geometry": {"type": "Point", "decimalLongitude": 13.160190870334, "decimalLatitude": 55.3761796497412, "coordinates": [13.160190870334, 55.3761796497412]}, "type": "none"}], "yearStarted": 2010.0}, {"siteId": "1c3b59ed-8841-4850-af67-ea8ba6a9d426", "name": "Eslöv", "status": "active", "type": "", "description": "", "KartaTx": "02CNO", "area": "0", "projects": ["d0b2f329-c394-464b-b5ab-e1e205585a7c"], "extent": {"geometry": {"type": "Point", "coordinates": [13.232911531506073, 55.78395779744991], "decimalLongitude": 13.232911531506073, "decimalLatitude": 55.78395779744991, "areaKmSq": 0, "aream2": 0, "centre": [13.232911531506073, 55.78395779744991]}, "source": "Point"}, "geoIndex": {"type": "Point", "coordinates": [13.232911531506073, 55.78395779744991]}, "transectParts": [{"name": "1 - Ellinge", "description": "", "geometry": {"type": "Point", "decimalLongitude": 13.2963827867394, "decimalLatitude": 55.8149965671645, "coordinates": [13.2963827867394, 55.8149965671645]}, "type": "none"}, {"name": "2 - Skarhults kyrka", "description": "", "geometry": {"type": "Point", "decimalLongitude": 13.367213782372, "decimalLatitude": 55.8027746997581, "coordinates": [13.367213782372, 55.8027746997581]}, "type": "none"}, {"name": "3 - Roslövsholm", "description": "", "geometry": {"type": "Point", "decimalLongitude": 13.371669321596599, "decimalLatitude": 55.7730521504101, "coordinates": [13.371669321596599, 55.7730521504101]}, "type": "none"}, {"name": "4 - Flyinge reningsverk", "description": "", "geometry": {"type": "Point", "decimalLongitude": 13.3491653409604, "decimalLatitude": 55.7524964485841, "coordinates": [13.3491653409604, 55.7524964485841]}, "type": "none"}, {"name": "5 - Sandby mosse", "description": "", "geometry": {"type": "Point", "decimalLongitude": 13.414439149056802, "decimalLatitude": 55.714162947824, "coordinates": [13.414439149056802, 55.714162947824]}, "type": "none"}, {"name": "6 - Måryd", "description": "", "geometry": {"type": "Point", "decimalLongitude": 13.3672192041538, "decimalLatitude": 55.70138305582379, "coordinates": [13.3672192041538, 55.70138305582379]}, "type": "none"}, {"name": "7 - Torna hällestad", "description": "", "geometry": {"type": "Point", "decimalLongitude": 13.3902688900174, "decimalLatitude": 55.6699972371021, "coordinates": [13.3902688900174, 55.6699972371021]}, "type": "none"}, {"name": "8 - Billebjär", "description": "", "geometry": {"type": "Point", "decimalLongitude": 13.317776008536, "decimalLatitude": 55.690273650097105, "coordinates": [13.317776008536, 55.690273650097105]}, "type": "none"}, {"name": "9 - Hardeberga", "description": "", "geometry": {"type": "Point", "decimalLongitude": 13.2924951229276, "decimalLatitude": 55.698051467664, "coordinates": [13.2924951229276, 55.698051467664]}, "type": "none"}, {"name": "10 - Lunds reningsverk", "description": "", "geometry": {"type": "Point", "decimalLongitude": 13.157502778652301, "decimalLatitude": 55.698051525755, "coordinates": [13.157502778652301, 55.698051525755]}, "type": "none"}, {"name": "11 - Örestads golfklubb", "description": "", "geometry": {"type": "Point", "decimalLongitude": 13.063054109373699, "decimalLatitude": 55.6936044189425, "coordinates": [13.063054109373699, 55.6936044189425]}, "type": "none"}, {"name": "12 - Hög", "description": "", "geometry": {"type": "Point", "decimalLongitude": 13.0555611762457, "decimalLatitude": 55.7644399966462, "coordinates": [13.0555611762457, 55.7644399966462]}, "type": "none"}, {"name": "13 - Stångby mosse", "description": "", "geometry": {"type": "Point", "decimalLongitude": 13.1538789613314, "decimalLatitude": 55.773332234697, "coordinates": [13.1538789613314, 55.773332234697]}, "type": "none"}, {"name": "14 - Dagstorp", "description": "", "geometry": {"type": "Point", "decimalLongitude": 13.067775597469002, "decimalLatitude": 55.819999971382295, "coordinates": [13.067775597469002, 55.819999971382295]}, "type": "none"}, {"name": "15 - Gissleberga", "description": "", "geometry": {"type": "Point", "decimalLongitude": 13.1019452330986, "decimalLatitude": 55.849437312370206, "coordinates": [13.1019452330986, 55.849437312370206]}, "type": "none"}, {"name": "16 - Strö ängar", "description": "", "geometry": {"type": "Point", "decimalLongitude": 13.2291619592154, "decimalLatitude": 55.8930499845971, "coordinates": [13.2291619592154, 55.8930499845971]}, "type": "none"}, {"name": "17 - Selarp skogen", "description": "", "geometry": {"type": "Point", "decimalLongitude": 13.2894391894451, "decimalLatitude": 55.886660517487705, "coordinates": [13.2894391894451, 55.886660517487705]}, "type": "none"}, {"name": "18 - Bosarps Jär", "description": "", "geometry": {"type": "Point", "decimalLongitude": 13.3316623095679, "decimalLatitude": 55.886106269433604, "coordinates": [13.3316623095679, 55.886106269433604]}, "type": "none"}, {"name": "19 - Stehag", "description": "", "geometry": {"type": "Point", "decimalLongitude": 13.397498030374901, "decimalLatitude": 55.89555242410211, "coordinates": [13.397498030374901, 55.89555242410211]}, "type": "none"}, {"name": "20 - Stavröd", "description": "", "geometry": {"type": "Point", "decimalLongitude": 13.3816612332828, "decimalLatitude": 55.85388596659221, "coordinates": [13.3816612332828, 55.85388596659221]}, "type": "none"}], "yearStarted": 2010.0}, {"siteId": "182aa2d9-2439-49a7-83aa-c63bfcdb6253", "name": "Saxtorp", "status": "active", "type": "", "description": "", "KartaTx": "02CNV", "area": "0", "projects": ["d0b2f329-c394-464b-b5ab-e1e205585a7c"], "extent": {"geometry": {"type": "Point", "coordinates": [12.956378894358357, 55.81841534192689], "decimalLongitude": 12.956378894358357, "decimalLatitude": 55.81841534192689, "areaKmSq": 0, "aream2": 0, "centre": [12.956378894358357, 55.81841534192689]}, "source": "Point"}, "geoIndex": {"type": "Point", "coordinates": [12.956378894358357, 55.81841534192689]}, "transectParts": [{"name": "1", "description": "", "geometry": {"type": "Point", "decimalLongitude": 13.001747405348198, "decimalLatitude": 55.7441465968154, "coordinates": [13.001747405348198, 55.7441465968154]}, "type": "none"}, {"name": "2", "description": "", "geometry": {"type": "Point", "decimalLongitude": 12.974423155964901, "decimalLatitude": 55.735207694418605, "coordinates": [12.974423155964901, 55.735207694418605]}, "type": "none"}, {"name": "3", "description": "", "geometry": {"type": "Point", "decimalLongitude": 12.9643602178374, "decimalLatitude": 55.747222722124604, "coordinates": [12.9643602178374, 55.747222722124604]}, "type": "none"}, {"name": "4", "description": "", "geometry": {"type": "Point", "decimalLongitude": 12.962873382935, "decimalLatitude": 55.760864565746296, "coordinates": [12.962873382935, 55.760864565746296]}, "type": "none"}, {"name": "5", "description": "", "geometry": {"type": "Point", "decimalLongitude": 12.9351258315852, "decimalLatitude": 55.7717298154786, "coordinates": [12.9351258315852, 55.7717298154786]}, "type": "none"}, {"name": "6", "description": "", "geometry": {"type": "Point", "decimalLongitude": 12.9412009951459, "decimalLatitude": 55.805577187016496, "coordinates": [12.9412009951459, 55.805577187016496]}, "type": "none"}, {"name": "7", "description": "", "geometry": {"type": "Point", "decimalLongitude": 12.9311625357059, "decimalLatitude": 55.8227031977102, "coordinates": [12.9311625357059, 55.8227031977102]}, "type": "none"}, {"name": "8", "description": "", "geometry": {"type": "Point", "decimalLongitude": 12.955242417306499, "decimalLatitude": 55.8288980710364, "coordinates": [12.955242417306499, 55.8288980710364]}, "type": "none"}, {"name": "9", "description": "", "geometry": {"type": "Point", "decimalLongitude": 12.9608458736886, "decimalLatitude": 55.8361085791642, "coordinates": [12.9608458736886, 55.8361085791642]}, "type": "none"}, {"name": "10", "description": "", "geometry": {"type": "Point", "decimalLongitude": 12.9361992600615, "decimalLatitude": 55.849661201917, "coordinates": [12.9361992600615, 55.849661201917]}, "type": "none"}, {"name": "11", "description": "", "geometry": {"type": "Point", "decimalLongitude": 12.9361992600615, "decimalLatitude": 55.849661201917, "coordinates": [12.9361992600615, 55.849661201917]}, "type": "none"}, {"name": "12", "description": "", "geometry": {"type": "Point", "decimalLongitude": 12.8944829929635, "decimalLatitude": 55.871576260775996, "coordinates": [12.8944829929635, 55.871576260775996]}, "type": "none"}, {"name": "13", "description": "", "geometry": {"type": "Point", "decimalLongitude": 12.9270920914446, "decimalLatitude": 55.884016277665204, "coordinates": [12.9270920914446, 55.884016277665204]}, "type": "none"}, {"name": "14", "description": "", "geometry": {"type": "Point", "decimalLongitude": 12.9706582238057, "decimalLatitude": 55.88465073292629, "coordinates": [12.9706582238057, 55.88465073292629]}, "type": "none"}, {"name": "15", "description": "", "geometry": {"type": "Point", "decimalLongitude": 12.9878348618621, "decimalLatitude": 55.869347735603505, "coordinates": [12.9878348618621, 55.869347735603505]}, "type": "none"}, {"name": "16", "description": "", "geometry": {"type": "Point", "decimalLongitude": 12.975341062318199, "decimalLatitude": 55.861620783071395, "coordinates": [12.975341062318199, 55.861620783071395]}, "type": "none"}, {"name": "17", "description": "", "geometry": {"type": "Point", "decimalLongitude": 12.9622290818208, "decimalLatitude": 55.84121746287829, "coordinates": [12.9622290818208, 55.84121746287829]}, "type": "none"}, {"name": "18", "description": "", "geometry": {"type": "Point", "decimalLongitude": 12.966883763537, "decimalLatitude": 55.8260045620725, "coordinates": [12.966883763537, 55.8260045620725]}, "type": "none"}, {"name": "19", "description": "", "geometry": {"type": "Point", "decimalLongitude": 12.981411958842099, "decimalLatitude": 55.8074874925614, "coordinates": [12.981411958842099, 55.8074874925614]}, "type": "none"}, {"name": "20", "description": "", "geometry": {"type": "Point", "decimalLongitude": 12.976954351867398, "decimalLatitude": 55.786466403661, "coordinates": [12.976954351867398, 55.786466403661]}, "type": "none"}], "yearStarted": 2010.0}, {"siteId": "de171bae-a69c-4749-9649-042a9b940d39", "name": "Staffanstorp", "status": "active", "type": "", "description": "Ut ur Dalby på Norrevångsvägen, varefter väg 16 följs fram till avtagsvägen mot Bjällerup, och vidare till Kvärlöv.", "KartaTx": "02CSO", "area": "0", "projects": ["d0b2f329-c394-464b-b5ab-e1e205585a7c"], "extent": {"geometry": {"type": "Point", "coordinates": [13.25184597422126, 55.613772247009415], "decimalLongitude": 13.25184597422126, "decimalLatitude": 55.613772247009415, "areaKmSq": 0, "aream2": 0, "centre": [13.25184597422126, 55.613772247009415]}, "source": "Point"}, "geoIndex": {"type": "Point", "coordinates": [13.25184597422126, 55.613772247009415]}, "transectParts": [{"name": "1", "description": "", "geometry": {"type": "Point", "decimalLongitude": 13.2136338588103, "decimalLatitude": 55.655258984573706, "coordinates": [13.2136338588103, 55.655258984573706]}, "type": "none"}, {"name": "2", "description": "Från Gullåkra mosse längs Gullåkravägen och Västanväg till Domarringen i Staffanstorp.", "geometry": {"type": "Point", "decimalLongitude": 13.191750439661801, "decimalLatitude": 55.6383335475747, "coordinates": [13.191750439661801, 55.6383335475747]}, "type": "none"}, {"name": "3", "description": "Från Domarringen västerut till Tottarp, varifrån vägen följs söderut till Nordanå.", "geometry": {"type": "Point", "decimalLongitude": 13.130475327211599, "decimalLatitude": 55.6274512825391, "coordinates": [13.130475327211599, 55.6274512825391]}, "type": "none"}, {"name": "4", "description": "Från Nordanå via Yttre ringvägen, Sallerupsvägen, Kvarnbyvägen och Husievägen till Husie mosse.", "geometry": {"type": "Point", "decimalLongitude": 13.085913774690402, "decimalLatitude": 55.5765469024546, "coordinates": [13.085913774690402, 55.5765469024546]}, "type": "none"}, {"name": "5", "description": "Från Husie mosse österut till Östra Kattarp, varifrån vägen följs söderut till Almåsa.", "geometry": {"type": "Point", "decimalLongitude": 13.1301507541854, "decimalLatitude": 55.560448760894396, "coordinates": [13.1301507541854, 55.560448760894396]}, "type": "none"}, {"name": "6", "description": "Raka vägen mellan Almåsa och Skabersjö.", "geometry": {"type": "Point", "decimalLongitude": 13.161803673115498, "decimalLatitude": 55.547118972049105, "coordinates": [13.161803673115498, 55.547118972049105]}, "type": "none"}, {"name": "7", "description": "Raka vägen mellan Skabersjö och Tutaremossen.", "geometry": {"type": "Point", "decimalLongitude": 13.1951755640994, "decimalLatitude": 55.5338178858503, "coordinates": [13.1951755640994, 55.5338178858503]}, "type": "none"}, {"name": "8", "description": "Vägen norrut upp i Torups bokskog.", "geometry": {"type": "Point", "decimalLongitude": 13.2072707257987, "decimalLatitude": 55.5497994736648, "coordinates": [13.2072707257987, 55.5497994736648]}, "type": "none"}, {"name": "9", "description": "Vidare upp genom bokskogen fram till Bara, där Malmövägen tas fram till Klågerup, och sedan rakt till Vinninge.", "geometry": {"type": "Point", "decimalLongitude": 13.225870871356198, "decimalLatitude": 55.5997012782444, "coordinates": [13.225870871356198, 55.5997012782444]}, "type": "none"}, {"name": "10", "description": "Raka vägen från Vinninge till västra sidan av Torreberga.", "geometry": {"type": "Point", "decimalLongitude": 13.2163055244873, "decimalLatitude": 55.6186559580197, "coordinates": [13.2163055244873, 55.6186559580197]}, "type": "none"}, {"name": "11", "description": "Torreberga rundas, varefter E108:an nås och följs till vägen mot Mossheddinge.", "geometry": {"type": "Point", "decimalLongitude": 13.294295640283, "decimalLatitude": 55.6166488166411, "coordinates": [13.294295640283, 55.6166488166411]}, "type": "none"}, {"name": "12", "description": "Från Mossheddinge till Alberta mosse via Esarp.", "geometry": {"type": "Point", "decimalLongitude": 13.331077078561302, "decimalLatitude": 55.6255192836802, "coordinates": [13.331077078561302, 55.6255192836802]}, "type": "none"}, {"name": "13", "description": "Från Alberta mosse följs vägen mellan Esarp och Genarp till avtagsvägen mot Toppeladugård.", "geometry": {"type": "Point", "decimalLongitude": 13.364496454930501, "decimalLatitude": 55.59984586222671, "coordinates": [13.364496454930501, 55.59984586222671]}, "type": "none"}, {"name": "14", "description": "Raka vägen mellan Toppeladugård och Assartorp.", "geometry": {"type": "Point", "decimalLongitude": 13.336507262362401, "decimalLatitude": 55.5816027625538, "coordinates": [13.336507262362401, 55.5816027625538]}, "type": "none"}, {"name": "15", "description": "Raka vägen mellan Assartorp och södra Risen.", "geometry": {"type": "Point", "decimalLongitude": 13.387803872799699, "decimalLatitude": 55.582122733647005, "coordinates": [13.387803872799699, 55.582122733647005]}, "type": "none"}, {"name": "16", "description": "Raka vägen mellan södra Risen och Häckeberga.", "geometry": {"type": "Point", "decimalLongitude": 13.422903422802902, "decimalLatitude": 55.5839963922668, "coordinates": [13.422903422802902, 55.5839963922668]}, "type": "none"}, {"name": "17", "description": "Raka vägen norrut från Häckeberga till Björnstorp via Genarp.", "geometry": {"type": "Point", "decimalLongitude": 13.4079692178691, "decimalLatitude": 55.62909587262871, "coordinates": [13.4079692178691, 55.62909587262871]}, "type": "none"}, {"name": "18", "description": "Från Björnstorp följs vägen norrut upp till väg 11. Därifrån tas vägen via Knivsåsen till Dalby stenbrott.", "geometry": {"type": "Point", "decimalLongitude": 13.376968644855198, "decimalLatitude": 55.657847810091, "coordinates": [13.376968644855198, 55.657847810091]}, "type": "none"}, {"name": "19", "description": "Från Dalby stenbrott till Dalby, genom samhället på de större vägarna upp till norra Rökepipan.", "geometry": {"type": "Point", "decimalLongitude": 13.358773432973999, "decimalLatitude": 55.6753837926915, "coordinates": [13.358773432973999, 55.6753837926915]}, "type": "none"}, {"name": "20", "description": "Ut ur Dalby på Norrevångsvägen, varefter väg 16 följs fram till avtagsvägen mot Bjällerup, och vidare till Kvärlöv.", "geometry": {"type": "Point", "decimalLongitude": 13.246426902113301, "decimalLatitude": 55.6622013617942, "coordinates": [13.246426902113301, 55.6622013617942]}, "type": "none"}], "yearStarted": 2010.0}, {"siteId": "8a893d5a-7b53-4c38-9ef7-fa7fd0c6330c", "name": "Hörröd", "status": "active", "type": "", "description": "", "KartaTx": "02DNO", "area": "0", "projects": ["d0b2f329-c394-464b-b5ab-e1e205585a7c"], "extent": {"geometry": {"type": "Point", "coordinates": [13.991181053841117, 55.8237774950043], "decimalLongitude": 13.991181053841117, "decimalLatitude": 55.8237774950043, "areaKmSq": 0, "aream2": 0, "centre": [13.991181053841117, 55.8237774950043]}, "source": "Point"}, "geoIndex": {"type": "Point", "coordinates": [13.991181053841117, 55.8237774950043]}, "transectParts": [{"name": "1", "description": "", "geometry": {"type": "Point", "decimalLongitude": 13.8419022124598, "decimalLatitude": 55.8683572048737, "coordinates": [13.8419022124598, 55.8683572048737]}, "type": "none"}, {"name": "2", "description": "", "geometry": {"type": "Point", "decimalLongitude": 13.9063300585955, "decimalLatitude": 55.87174040814671, "coordinates": [13.9063300585955, 55.87174040814671]}, "type": "none"}, {"name": "3", "description": "", "geometry": {"type": "Point", "decimalLongitude": 13.911817707428998, "decimalLatitude": 55.8591226007741, "coordinates": [13.911817707428998, 55.8591226007741]}, "type": "none"}, {"name": "4", "description": "", "geometry": {"type": "Point", "decimalLongitude": 13.990686807195, "decimalLatitude": 55.863294048099604, "coordinates": [13.990686807195, 55.863294048099604]}, "type": "none"}, {"name": "5", "description": "", "geometry": {"type": "Point", "decimalLongitude": 14.029283999321699, "decimalLatitude": 55.887689594010496, "coordinates": [14.029283999321699, 55.887689594010496]}, "type": "none"}, {"name": "6", "description": "", "geometry": {"type": "Point", "decimalLongitude": 14.0594932179245, "decimalLatitude": 55.900859877242205, "coordinates": [14.0594932179245, 55.900859877242205]}, "type": "none"}, {"name": "7", "description": "", "geometry": {"type": "Point", "decimalLongitude": 14.1677542945494, "decimalLatitude": 55.888370937831105, "coordinates": [14.1677542945494, 55.888370937831105]}, "type": "none"}, {"name": "8", "description": "", "geometry": {"type": "Point", "decimalLongitude": 14.1757205341927, "decimalLatitude": 55.873735899003805, "coordinates": [14.1757205341927, 55.873735899003805]}, "type": "none"}, {"name": "9", "description": "", "geometry": {"type": "Point", "decimalLongitude": 14.135485424748001, "decimalLatitude": 55.8492478208392, "coordinates": [14.135485424748001, 55.8492478208392]}, "type": "none"}, {"name": "10", "description": "", "geometry": {"type": "Point", "decimalLongitude": 14.1380659814215, "decimalLatitude": 55.8221812859961, "coordinates": [14.1380659814215, 55.8221812859961]}, "type": "none"}, {"name": "11", "description": "", "geometry": {"type": "Point", "decimalLongitude": 14.152406986375802, "decimalLatitude": 55.7775140116433, "coordinates": [14.152406986375802, 55.7775140116433]}, "type": "none"}, {"name": "12", "description": "", "geometry": {"type": "Point", "decimalLongitude": 14.1329262605617, "decimalLatitude": 55.772399499378004, "coordinates": [14.1329262605617, 55.772399499378004]}, "type": "none"}, {"name": "13", "description": "", "geometry": {"type": "Point", "decimalLongitude": 14.0812681683841, "decimalLatitude": 55.780156381904106, "coordinates": [14.0812681683841, 55.780156381904106]}, "type": "none"}, {"name": "14", "description": "", "geometry": {"type": "Point", "decimalLongitude": 14.0224710601614, "decimalLatitude": 55.777259970385295, "coordinates": [14.0224710601614, 55.777259970385295]}, "type": "none"}, {"name": "15", "description": "", "geometry": {"type": "Point", "decimalLongitude": 13.9881074565098, "decimalLatitude": 55.7666412325833, "coordinates": [13.9881074565098, 55.7666412325833]}, "type": "none"}, {"name": "16", "description": "", "geometry": {"type": "Point", "decimalLongitude": 13.926067691398098, "decimalLatitude": 55.757505778906406, "coordinates": [13.926067691398098, 55.757505778906406]}, "type": "none"}, {"name": "17", "description": "", "geometry": {"type": "Point", "decimalLongitude": 13.8960718206576, "decimalLatitude": 55.762999146386605, "coordinates": [13.8960718206576, 55.762999146386605]}, "type": "none"}, {"name": "18", "description": "", "geometry": {"type": "Point", "decimalLongitude": 13.8501110297029, "decimalLatitude": 55.7424941952107, "coordinates": [13.8501110297029, 55.7424941952107]}, "type": "none"}, {"name": "19", "description": "", "geometry": {"type": "Point", "decimalLongitude": 13.849782007509502, "decimalLatitude": 55.761156842816, "coordinates": [13.849782007509502, 55.761156842816]}, "type": "none"}, {"name": "20", "description": "", "geometry": {"type": "Point", "decimalLongitude": 13.8109050934014, "decimalLatitude": 55.795477949637394, "coordinates": [13.8109050934014, 55.795477949637394]}, "type": "none"}], "yearStarted": 2010.0}, {"siteId": "c24b799c-3b75-463d-9e31-02d9779b1479", "name": "Hörby", "status": "active", "type": "", "description": "", "KartaTx": "02DNV", "area": "0", "projects": ["d0b2f329-c394-464b-b5ab-e1e205585a7c"], "extent": {"geometry": {"type": "Point", "coordinates": [13.560772943523547, 55.8317623612028], "decimalLongitude": 13.560772943523547, "decimalLatitude": 55.8317623612028, "areaKmSq": 0, "aream2": 0, "centre": [13.560772943523547, 55.8317623612028]}, "source": "Point"}, "geoIndex": {"type": "Point", "coordinates": [13.560772943523547, 55.8317623612028]}, "transectParts": [{"name": "1 - Ringsjöholm", "description": "", "geometry": {"type": "Point", "decimalLongitude": 13.429972744509499, "decimalLatitude": 55.901565311257, "coordinates": [13.429972744509499, 55.901565311257]}, "type": "none"}, {"name": "2 - S Munkarp", "description": "", "geometry": {"type": "Point", "decimalLongitude": 13.445193310006001, "decimalLatitude": 55.86662179184749, "coordinates": [13.445193310006001, 55.86662179184749]}, "type": "none"}, {"name": "3 - Snogerödsdammen", "description": "", "geometry": {"type": "Point", "decimalLongitude": 13.510263640796301, "decimalLatitude": 55.8409906273489, "coordinates": [13.510263640796301, 55.8409906273489]}, "type": "none"}, {"name": "4 - Bråån V Rolsberga", "description": "", "geometry": {"type": "Point", "decimalLongitude": 13.4590397745981, "decimalLatitude": 55.8354686239215, "coordinates": [13.4590397745981, 55.8354686239215]}, "type": "none"}, {"name": "5 - Löberöds gård", "description": "", "geometry": {"type": "Point", "decimalLongitude": 13.449346264115698, "decimalLatitude": 55.804646531535795, "coordinates": [13.449346264115698, 55.804646531535795]}, "type": "none"}, {"name": "6 - Bolleröd", "description": "", "geometry": {"type": "Point", "decimalLongitude": 13.493419970479, "decimalLatitude": 55.794720507871894, "coordinates": [13.493419970479, 55.794720507871894]}, "type": "none"}, {"name": "7 - Hjularöds våtmark", "description": "", "geometry": {"type": "Point", "decimalLongitude": 13.4884505993201, "decimalLatitude": 55.773944993793705, "coordinates": [13.4884505993201, 55.773944993793705]}, "type": "none"}, {"name": "8 - Brunnslöv", "description": "", "geometry": {"type": "Point", "decimalLongitude": 13.532048467001701, "decimalLatitude": 55.7645715330774, "coordinates": [13.532048467001701, 55.7645715330774]}, "type": "none"}, {"name": "9 - Norre mosse", "description": "", "geometry": {"type": "Point", "decimalLongitude": 13.5797058654735, "decimalLatitude": 55.7565501521873, "coordinates": [13.5797058654735, 55.7565501521873]}, "type": "none"}, {"name": "10 - Vedåkra", "description": "", "geometry": {"type": "Point", "decimalLongitude": 13.590383137858, "decimalLatitude": 55.7399249138237, "coordinates": [13.590383137858, 55.7399249138237]}, "type": "none"}, {"name": "11 - Lyby mosse", "description": "", "geometry": {"type": "Point", "decimalLongitude": 13.643288785725698, "decimalLatitude": 55.7499418654971, "coordinates": [13.643288785725698, 55.7499418654971]}, "type": "none"}, {"name": "12 - Råby", "description": "", "geometry": {"type": "Point", "decimalLongitude": 13.638271814689999, "decimalLatitude": 55.777200740512704, "coordinates": [13.638271814689999, 55.777200740512704]}, "type": "none"}, {"name": "13 - Almarkaröd", "description": "", "geometry": {"type": "Point", "decimalLongitude": 13.6118665393364, "decimalLatitude": 55.786991826729, "coordinates": [13.6118665393364, 55.786991826729]}, "type": "none"}, {"name": "14 - Bessinge", "description": "", "geometry": {"type": "Point", "decimalLongitude": 13.636899198159599, "decimalLatitude": 55.8233990081097, "coordinates": [13.636899198159599, 55.8233990081097]}, "type": "none"}, {"name": "15 - Satserups mosse", "description": "", "geometry": {"type": "Point", "decimalLongitude": 13.6780724966133, "decimalLatitude": 55.8339288374294, "coordinates": [13.6780724966133, 55.8339288374294]}, "type": "none"}, {"name": "16 - Kyle mosse", "description": "", "geometry": {"type": "Point", "decimalLongitude": 13.708059516851199, "decimalLatitude": 55.8565890331836, "coordinates": [13.708059516851199, 55.8565890331836]}, "type": "none"}, {"name": "17 - Ekeröd", "description": "", "geometry": {"type": "Point", "decimalLongitude": 13.682177957556, "decimalLatitude": 55.870752533692595, "coordinates": [13.682177957556, 55.870752533692595]}, "type": "none"}, {"name": "18 - Mjälaströ", "description": "", "geometry": {"type": "Point", "decimalLongitude": 13.657957742221901, "decimalLatitude": 55.87764488880429, "coordinates": [13.657957742221901, 55.87764488880429]}, "type": "none"}, {"name": "19 - Fulltofta", "description": "", "geometry": {"type": "Point", "decimalLongitude": 13.6084375997097, "decimalLatitude": 55.8792409985762, "coordinates": [13.6084375997097, 55.8792409985762]}, "type": "none"}, {"name": "20 - Häggenäs fälader", "description": "", "geometry": {"type": "Point", "decimalLongitude": 13.613908917495001, "decimalLatitude": 55.8913321089783, "coordinates": [13.613908917495001, 55.8913321089783]}, "type": "none"}], "yearStarted": 2012.0}, {"siteId": "fbfb8683-a459-48ee-8eae-5a0620c96e3d", "name": "Österlen-Fyledalen", "status": "active", "type": "", "description": "", "KartaTx": "02DSO", "area": "0", "projects": ["d0b2f329-c394-464b-b5ab-e1e205585a7c"], "extent": {"geometry": {"type": "Point", "coordinates": [14.128250447088343, 55.55304461089943], "decimalLongitude": 14.128250447088343, "decimalLatitude": 55.55304461089943, "areaKmSq": 0, "aream2": 0, "centre": [14.128250447088343, 55.55304461089943]}, "source": "Point"}, "geoIndex": {"type": "Point", "coordinates": [14.128250447088343, 55.55304461089943]}, "transectParts": [{"name": "1", "description": "", "geometry": {"type": "Point", "decimalLongitude": 14.2375458660416, "decimalLatitude": 55.6787668661563, "coordinates": [14.2375458660416, 55.6787668661563]}, "type": "none"}, {"name": "2", "description": "", "geometry": {"type": "Point", "decimalLongitude": 14.1662239551421, "decimalLatitude": 55.6735227318605, "coordinates": [14.1662239551421, 55.6735227318605]}, "type": "none"}, {"name": "3", "description": "", "geometry": {"type": "Point", "decimalLongitude": 14.110845723913698, "decimalLatitude": 55.66387685453321, "coordinates": [14.110845723913698, 55.66387685453321]}, "type": "none"}, {"name": "4", "description": "", "geometry": {"type": "Point", "decimalLongitude": 14.0901152727154, "decimalLatitude": 55.647328975841596, "coordinates": [14.0901152727154, 55.647328975841596]}, "type": "none"}, {"name": "5", "description": "", "geometry": {"type": "Point", "decimalLongitude": 14.132752261179302, "decimalLatitude": 55.630939675428706, "coordinates": [14.132752261179302, 55.630939675428706]}, "type": "none"}, {"name": "6", "description": "", "geometry": {"type": "Point", "decimalLongitude": 14.124126427892199, "decimalLatitude": 55.595068269424495, "coordinates": [14.124126427892199, 55.595068269424495]}, "type": "none"}, {"name": "7", "description": "", "geometry": {"type": "Point", "decimalLongitude": 14.087660969484999, "decimalLatitude": 55.56913957477511, "coordinates": [14.087660969484999, 55.56913957477511]}, "type": "none"}, {"name": "8", "description": "", "geometry": {"type": "Point", "decimalLongitude": 13.8540113798404, "decimalLatitude": 55.574623990267895, "coordinates": [13.8540113798404, 55.574623990267895]}, "type": "none"}, {"name": "9", "description": "", "geometry": {"type": "Point", "decimalLongitude": 13.8619618462112, "decimalLatitude": 55.5497933610659, "coordinates": [13.8619618462112, 55.5497933610659]}, "type": "none"}, {"name": "10", "description": "", "geometry": {"type": "Point", "decimalLongitude": 13.8517002185954, "decimalLatitude": 55.526020496376105, "coordinates": [13.8517002185954, 55.526020496376105]}, "type": "none"}, {"name": "11", "description": "", "geometry": {"type": "Point", "decimalLongitude": 13.890656472623501, "decimalLatitude": 55.5234916629318, "coordinates": [13.890656472623501, 55.5234916629318]}, "type": "none"}, {"name": "12", "description": "", "geometry": {"type": "Point", "decimalLongitude": 13.9222622326377, "decimalLatitude": 55.510973456096295, "coordinates": [13.9222622326377, 55.510973456096295]}, "type": "none"}, {"name": "13", "description": "", "geometry": {"type": "Point", "decimalLongitude": 13.9496351812506, "decimalLatitude": 55.490441493759604, "coordinates": [13.9496351812506, 55.490441493759604]}, "type": "none"}, {"name": "14", "description": "", "geometry": {"type": "Point", "decimalLongitude": 13.9910306645047, "decimalLatitude": 55.4745502986938, "coordinates": [13.9910306645047, 55.4745502986938]}, "type": "none"}, {"name": "15", "description": "", "geometry": {"type": "Point", "decimalLongitude": 14.223639472451401, "decimalLatitude": 55.470933575206004, "coordinates": [14.223639472451401, 55.470933575206004]}, "type": "none"}, {"name": "16", "description": "", "geometry": {"type": "Point", "decimalLongitude": 14.2739828593148, "decimalLatitude": 55.4972481637116, "coordinates": [14.2739828593148, 55.4972481637116]}, "type": "none"}, {"name": "17", "description": "", "geometry": {"type": "Point", "decimalLongitude": 14.3245521016662, "decimalLatitude": 55.50162548035829, "coordinates": [14.3245521016662, 55.50162548035829]}, "type": "none"}, {"name": "18", "description": "", "geometry": {"type": "Point", "decimalLongitude": 14.326616253425401, "decimalLatitude": 55.5824260412228, "coordinates": [14.326616253425401, 55.5824260412228]}, "type": "none"}, {"name": "19", "description": "", "geometry": {"type": "Point", "decimalLongitude": 14.289305548687999, "decimalLatitude": 55.5859944237856, "coordinates": [14.289305548687999, 55.5859944237856]}, "type": "none"}, {"name": "20", "description": "", "geometry": {"type": "Point", "decimalLongitude": 14.2772665560813, "decimalLatitude": 55.599481140539105, "coordinates": [14.2772665560813, 55.599481140539105]}, "type": "none"}], "yearStarted": 2010.0}, {"siteId": "20f68a07-b7cc-4c64-9fed-b4779676fb56", "name": "Hällestad-Sjöbo", "status": "active", "type": "", "description": "", "KartaTx": "02DSV", "area": "0", "projects": ["d0b2f329-c394-464b-b5ab-e1e205585a7c"], "extent": {"geometry": {"type": "Point", "coordinates": [13.572959175294676, 55.64807474275061], "decimalLongitude": 13.572959175294676, "decimalLatitude": 55.64807474275061, "areaKmSq": 0, "aream2": 0, "centre": [13.572959175294676, 55.64807474275061]}, "source": "Point"}, "geoIndex": {"type": "Point", "coordinates": [13.572959175294676, 55.64807474275061]}, "transectParts": [{"name": "1", "description": "", "geometry": {"type": "Point", "decimalLongitude": 13.4402974074627, "decimalLatitude": 55.685536145153996, "coordinates": [13.4402974074627, 55.685536145153996]}, "type": "none"}, {"name": "2", "description": "", "geometry": {"type": "Point", "decimalLongitude": 13.4619887078918, "decimalLatitude": 55.6890071508793, "coordinates": [13.4619887078918, 55.6890071508793]}, "type": "none"}, {"name": "3", "description": "", "geometry": {"type": "Point", "decimalLongitude": 13.4927950499823, "decimalLatitude": 55.690103839804294, "coordinates": [13.4927950499823, 55.690103839804294]}, "type": "none"}, {"name": "4", "description": "", "geometry": {"type": "Point", "decimalLongitude": 13.509086434493, "decimalLatitude": 55.676196535145394, "coordinates": [13.509086434493, 55.676196535145394]}, "type": "none"}, {"name": "5", "description": "", "geometry": {"type": "Point", "decimalLongitude": 13.494113874599499, "decimalLatitude": 55.65078580284389, "coordinates": [13.494113874599499, 55.65078580284389]}, "type": "none"}, {"name": "6", "description": "", "geometry": {"type": "Point", "decimalLongitude": 13.5766186312537, "decimalLatitude": 55.6047771839945, "coordinates": [13.5766186312537, 55.6047771839945]}, "type": "none"}, {"name": "7", "description": "", "geometry": {"type": "Point", "decimalLongitude": 13.624749467020399, "decimalLatitude": 55.6216979157163, "coordinates": [13.624749467020399, 55.6216979157163]}, "type": "none"}, {"name": "8", "description": "", "geometry": {"type": "Point", "decimalLongitude": 13.644814332932999, "decimalLatitude": 55.6177228631275, "coordinates": [13.644814332932999, 55.6177228631275]}, "type": "none"}, {"name": "9", "description": "", "geometry": {"type": "Point", "decimalLongitude": 13.6828211623747, "decimalLatitude": 55.5986039290594, "coordinates": [13.6828211623747, 55.5986039290594]}, "type": "none"}, {"name": "10", "description": "", "geometry": {"type": "Point", "decimalLongitude": 13.7198513815944, "decimalLatitude": 55.5870214540268, "coordinates": [13.7198513815944, 55.5870214540268]}, "type": "none"}, {"name": "11", "description": "", "geometry": {"type": "Point", "decimalLongitude": 13.736262520929198, "decimalLatitude": 55.597388760908295, "coordinates": [13.736262520929198, 55.597388760908295]}, "type": "none"}, {"name": "12", "description": "", "geometry": {"type": "Point", "decimalLongitude": 13.7859266815185, "decimalLatitude": 55.5846965126349, "coordinates": [13.7859266815185, 55.5846965126349]}, "type": "none"}, {"name": "13", "description": "", "geometry": {"type": "Point", "decimalLongitude": 13.6003800686409, "decimalLatitude": 55.6510537208142, "coordinates": [13.6003800686409, 55.6510537208142]}, "type": "none"}, {"name": "14", "description": "", "geometry": {"type": "Point", "decimalLongitude": 13.544070716426301, "decimalLatitude": 55.645248532296705, "coordinates": [13.544070716426301, 55.645248532296705]}, "type": "none"}, {"name": "15", "description": "", "geometry": {"type": "Point", "decimalLongitude": 13.5549672584063, "decimalLatitude": 55.6627168928798, "coordinates": [13.5549672584063, 55.6627168928798]}, "type": "none"}, {"name": "16", "description": "", "geometry": {"type": "Point", "decimalLongitude": 13.5530151622347, "decimalLatitude": 55.6925269121912, "coordinates": [13.5530151622347, 55.6925269121912]}, "type": "none"}, {"name": "17", "description": "", "geometry": {"type": "Point", "decimalLongitude": 13.5157703268964, "decimalLatitude": 55.7103542663607, "coordinates": [13.5157703268964, 55.7103542663607]}, "type": "none"}, {"name": "18", "description": "", "geometry": {"type": "Point", "decimalLongitude": 13.489248089275101, "decimalLatitude": 55.70542724601279, "coordinates": [13.489248089275101, 55.70542724601279]}, "type": "none"}, {"name": "19", "description": "", "geometry": {"type": "Point", "decimalLongitude": 13.4545513019718, "decimalLatitude": 55.7069147282775, "coordinates": [13.4545513019718, 55.7069147282775]}, "type": "none"}, {"name": "20", "description": "", "geometry": {"type": "Point", "decimalLongitude": 13.4266594761254, "decimalLatitude": 55.6992883946817, "coordinates": [13.4266594761254, 55.6992883946817]}, "type": "none"}], "yearStarted": 2012.0}, {"siteId": "e78ee2c1-2510-49e9-bb2b-84a1ff0e1f2a", "name": "Ängelholm", "status": "active", "type": "", "description": "", "KartaTx": "03CNV", "area": "0", "projects": ["d0b2f329-c394-464b-b5ab-e1e205585a7c"], "extent": {"geometry": {"type": "Point", "coordinates": [12.865369389758666, 56.17225672384029], "decimalLongitude": 12.865369389758666, "decimalLatitude": 56.17225672384029, "areaKmSq": 0, "aream2": 0, "centre": [12.865369389758666, 56.17225672384029]}, "source": "Point"}, "geoIndex": {"type": "Point", "coordinates": [12.865369389758666, 56.17225672384029]}, "transectParts": [{"name": "1 - Gunnarstorp", "description": "liten väg mot söder väster jvg. Mellan två lövholmar", "geometry": {"type": "Point", "decimalLongitude": 12.9587497983923, "decimalLatitude": 56.1034143444658, "coordinates": [12.9587497983923, 56.1034143444658]}, "type": "none"}, {"name": "2 - Vrams Gunnarst", "description": "efter hus p-ficka vänster sida", "geometry": {"type": "Point", "decimalLongitude": 12.9762079812924, "decimalLatitude": 56.106511511835606, "coordinates": [12.9762079812924, 56.106511511835606]}, "type": "none"}, {"name": "3 - Vrams Gunnarst", "description": "Hästhagsvägen, högersida, hygge vänster", "geometry": {"type": "Point", "decimalLongitude": 12.977615676533802, "decimalLatitude": 56.1092393677929, "coordinates": [12.977615676533802, 56.1092393677929]}, "type": "none"}, {"name": "4", "description": "Maglabyvägen mot Kärrebergastugby, P-plats höger sida", "geometry": {"type": "Point", "decimalLongitude": 12.9931451670494, "decimalLatitude": 56.116782482635095, "coordinates": [12.9931451670494, 56.116782482635095]}, "type": "none"}, {"name": "5", "description": "Innan det öppnar sig mot slätten i norr, ca 300m in till vänster", "geometry": {"type": "Point", "decimalLongitude": 12.9926210523213, "decimalLatitude": 56.1239587166107, "coordinates": [12.9926210523213, 56.1239587166107]}, "type": "none"}, {"name": "6 - Sånna mader", "description": "EfterTommarp under kraftledningsgata", "geometry": {"type": "Point", "decimalLongitude": 13.024013592732599, "decimalLatitude": 56.157016601943795, "coordinates": [13.024013592732599, 56.157016601943795]}, "type": "none"}, {"name": "7 - Hjämshult", "description": "mellan Hjälmshult o Starby vid väg in till vänster", "geometry": {"type": "Point", "decimalLongitude": 12.9957396347052, "decimalLatitude": 56.1914185575953, "coordinates": [12.9957396347052, 56.1914185575953]}, "type": "none"}, {"name": "8 - Ugglarps broar", "description": "", "geometry": {"type": "Point", "decimalLongitude": 12.984967108259198, "decimalLatitude": 56.2064478451037, "coordinates": [12.984967108259198, 56.2064478451037]}, "type": "none"}, {"name": "9 - Höja/Skörpinge", "description": "vägen mot Ausås vid våtmarken", "geometry": {"type": "Point", "decimalLongitude": 12.904545712778, "decimalLatitude": 56.22534209921479, "coordinates": [12.904545712778, 56.22534209921479]}, "type": "none"}, {"name": "10 - Gräsmatteodlingen", "description": "utmed vägen centrala delarna", "geometry": {"type": "Point", "decimalLongitude": 12.830424232856, "decimalLatitude": 56.2243887475085, "coordinates": [12.830424232856, 56.2243887475085]}, "type": "none"}, {"name": "11 - Sandön", "description": "vid bryggan", "geometry": {"type": "Point", "decimalLongitude": 12.9401088050534, "decimalLatitude": 56.224284799245396, "coordinates": [12.9401088050534, 56.224284799245396]}, "type": "none"}, {"name": "12 - Görslövsån/Farhult", "description": "fältet utmed ån mot havet", "geometry": {"type": "Point", "decimalLongitude": 12.6941049169398, "decimalLatitude": 56.214741532210105, "coordinates": [12.6941049169398, 56.214741532210105]}, "type": "none"}, {"name": "13 - Ornakärr", "description": "efter bäcken mot fälten", "geometry": {"type": "Point", "decimalLongitude": 12.635452301650801, "decimalLatitude": 56.2024671284904, "coordinates": [12.635452301650801, 56.2024671284904]}, "type": "none"}, {"name": "14 - Mjöhult", "description": "korsningen mot vindkraftverket", "geometry": {"type": "Point", "decimalLongitude": 12.691532918320801, "decimalLatitude": 56.1868199289962, "coordinates": [12.691532918320801, 56.1868199289962]}, "type": "none"}, {"name": "15 - Höghult", "description": "3-vägskorsningen", "geometry": {"type": "Point", "decimalLongitude": 12.729885532701301, "decimalLatitude": 56.1707075810636, "coordinates": [12.729885532701301, 56.1707075810636]}, "type": "none"}, {"name": "16 - Svedberga, ladan", "description": "", "geometry": {"type": "Point", "decimalLongitude": 12.7118226552515, "decimalLatitude": 56.154980091722095, "coordinates": [12.7118226552515, 56.154980091722095]}, "type": "none"}, {"name": "17 - Västrabygård", "description": "dungen väster gården", "geometry": {"type": "Point", "decimalLongitude": 12.7411037402515, "decimalLatitude": 56.151217394846604, "coordinates": [12.7411037402515, 56.151217394846604]}, "type": "none"}, {"name": "18 - Efter Västarbygård", "description": "90-graderskurvan innan jvg", "geometry": {"type": "Point", "decimalLongitude": 12.7724610277051, "decimalLatitude": 56.161876225358895, "coordinates": [12.7724610277051, 56.161876225358895]}, "type": "none"}, {"name": "19 - Vägen mot Östarby", "description": "från Rögle mot Östraby innan jvg på Västarbyvägen", "geometry": {"type": "Point", "decimalLongitude": 12.7695080632249, "decimalLatitude": 56.1788767640695, "coordinates": [12.7695080632249, 56.1788767640695]}, "type": "none"}, {"name": "20 - Hasslarps dammar", "description": "", "geometry": {"type": "Point", "decimalLongitude": 12.813617381709099, "decimalLatitude": 56.12963312485021, "coordinates": [12.813617381709099, 56.12963312485021]}, "type": "none"}], "yearStarted": 2010.0}, {"siteId": "7ece11c6-0428-42d6-9020-55d2a043cf4c", "name": "Klippan", "status": "active", "type": "", "description": "", "KartaTx": "03CSO", "area": "0", "projects": ["d0b2f329-c394-464b-b5ab-e1e205585a7c"], "extent": {"geometry": {"type": "Point", "coordinates": [13.214361556815394, 56.023436837615805], "decimalLongitude": 13.214361556815394, "decimalLatitude": 56.023436837615805, "areaKmSq": 0, "aream2": 0, "centre": [13.214361556815394, 56.023436837615805]}, "source": "Point"}, "geoIndex": {"type": "Point", "coordinates": [13.214361556815394, 56.023436837615805]}, "transectParts": [{"name": "1 - Sorröd", "description": "", "geometry": {"type": "Point", "decimalLongitude": 13.2506600582511, "decimalLatitude": 56.122112431021606, "coordinates": [13.2506600582511, 56.122112431021606]}, "type": "none"}, {"name": "2 - Marocko", "description": "", "geometry": {"type": "Point", "decimalLongitude": 13.2602293147128, "decimalLatitude": 56.0921851195467, "coordinates": [13.2602293147128, 56.0921851195467]}, "type": "none"}, {"name": "3 - Venlösa äng", "description": "", "geometry": {"type": "Point", "decimalLongitude": 13.222803054858199, "decimalLatitude": 56.090913160876205, "coordinates": [13.222803054858199, 56.090913160876205]}, "type": "none"}, {"name": "4 - Storaryd", "description": "", "geometry": {"type": "Point", "decimalLongitude": 13.339860495483599, "decimalLatitude": 56.102786498806104, "coordinates": [13.339860495483599, 56.102786498806104]}, "type": "none"}, {"name": "5 - Intill infart Räfshalen", "description": "", "geometry": {"type": "Point", "decimalLongitude": 13.3123790334269, "decimalLatitude": 56.082280015689705, "coordinates": [13.3123790334269, 56.082280015689705]}, "type": "none"}, {"name": "6 - Ljungsgård", "description": "", "geometry": {"type": "Point", "decimalLongitude": 13.3229837449179, "decimalLatitude": 56.035828960589505, "coordinates": [13.3229837449179, 56.035828960589505]}, "type": "none"}, {"name": "7 - Färingtofta Kyrka", "description": "", "geometry": {"type": "Point", "decimalLongitude": 13.375506692683802, "decimalLatitude": 56.046569468617896, "coordinates": [13.375506692683802, 56.046569468617896]}, "type": "none"}, {"name": "8 - Djupadalsmölla", "description": "", "geometry": {"type": "Point", "decimalLongitude": 13.384977730755, "decimalLatitude": 56.0173592417068, "coordinates": [13.384977730755, 56.0173592417068]}, "type": "none"}, {"name": "9 - Bron Brostugan Billinge", "description": "", "geometry": {"type": "Point", "decimalLongitude": 13.353171072750301, "decimalLatitude": 55.9682686539776, "coordinates": [13.353171072750301, 55.9682686539776]}, "type": "none"}, {"name": "10 - Stockamöllan", "description": "", "geometry": {"type": "Point", "decimalLongitude": 13.3760819823404, "decimalLatitude": 55.9490648943753, "coordinates": [13.3760819823404, 55.9490648943753]}, "type": "none"}, {"name": "11 - Haghus", "description": "", "geometry": {"type": "Point", "decimalLongitude": 13.311597698824801, "decimalLatitude": 55.921253220740795, "coordinates": [13.311597698824801, 55.921253220740795]}, "type": "none"}, {"name": "12 - Infart Rönnebacka", "description": "", "geometry": {"type": "Point", "decimalLongitude": 13.2154805991995, "decimalLatitude": 55.9143083916212, "coordinates": [13.2154805991995, 55.9143083916212]}, "type": "none"}, {"name": "13 - Tarstad Kraftledning", "description": "", "geometry": {"type": "Point", "decimalLongitude": 13.1527722322102, "decimalLatitude": 55.9498110387191, "coordinates": [13.1527722322102, 55.9498110387191]}, "type": "none"}, {"name": "14 - Före Lundahus", "description": "", "geometry": {"type": "Point", "decimalLongitude": 13.1387588572367, "decimalLatitude": 55.981953096268995, "coordinates": [13.1387588572367, 55.981953096268995]}, "type": "none"}, {"name": "15 - Före Bögerup Hunseröd", "description": "", "geometry": {"type": "Point", "decimalLongitude": 13.002615215482399, "decimalLatitude": 56.0009352842819, "coordinates": [13.002615215482399, 56.0009352842819]}, "type": "none"}, {"name": "16 - Infart Klåverödsgården", "description": "", "geometry": {"type": "Point", "decimalLongitude": 13.159986125354399, "decimalLatitude": 56.034819637976895, "coordinates": [13.159986125354399, 56.034819637976895]}, "type": "none"}, {"name": "17 - Före Bauseröd", "description": "", "geometry": {"type": "Point", "decimalLongitude": 13.064132928486801, "decimalLatitude": 56.03860141849529, "coordinates": [13.064132928486801, 56.03860141849529]}, "type": "none"}, {"name": "18 - Båv (bäck)", "description": "", "geometry": {"type": "Point", "decimalLongitude": 13.0296620287978, "decimalLatitude": 56.0642105326468, "coordinates": [13.0296620287978, 56.0642105326468]}, "type": "none"}, {"name": "19 - Gustaget Kvidinge", "description": "", "geometry": {"type": "Point", "decimalLongitude": 13.072502845602699, "decimalLatitude": 56.1133272019631, "coordinates": [13.072502845602699, 56.1133272019631]}, "type": "none"}, {"name": "20 - Stackarpdammen", "description": "", "geometry": {"type": "Point", "decimalLongitude": 13.128997222764198, "decimalLatitude": 56.119794602452096, "coordinates": [13.128997222764198, 56.119794602452096]}, "type": "none"}], "yearStarted": 2011.0}, {"siteId": "9a684b49-ebfa-4128-b922-723940266214", "name": "Tollarp/Rickarum/N Ströö/Kristianstad", "status": "active", "type": "", "description": "", "KartaTx": "03DSO", "area": "0", "projects": ["d0b2f329-c394-464b-b5ab-e1e205585a7c"], "extent": {"geometry": {"type": "Point", "coordinates": [14.002183833791602, 56.002670338667095], "decimalLongitude": 14.002183833791602, "decimalLatitude": 56.002670338667095, "areaKmSq": 0, "aream2": 0, "centre": [14.002183833791602, 56.002670338667095]}, "source": "Point"}, "geoIndex": {"type": "Point", "coordinates": [14.002183833791602, 56.002670338667095]}, "transectParts": [{"name": "1 - Ljungen. V Vram", "description": "", "geometry": {"type": "Point", "decimalLongitude": 13.939670489020902, "decimalLatitude": 55.9320967931103, "coordinates": [13.939670489020902, 55.9320967931103]}, "type": "none"}, {"name": "2 - Forshult", "description": "", "geometry": {"type": "Point", "decimalLongitude": 13.8642463598437, "decimalLatitude": 55.968301154658896, "coordinates": [13.8642463598437, 55.968301154658896]}, "type": "none"}, {"name": "3 - Öllestorp", "description": "", "geometry": {"type": "Point", "decimalLongitude": 13.8529812207094, "decimalLatitude": 55.9979475849442, "coordinates": [13.8529812207094, 55.9979475849442]}, "type": "none"}, {"name": "4 - Ekholma/Vinnö Mosse", "description": "", "geometry": {"type": "Point", "decimalLongitude": 13.839451661208301, "decimalLatitude": 56.040223282045496, "coordinates": [13.839451661208301, 56.040223282045496]}, "type": "none"}, {"name": "5 - Ö Ejaröd / Svarte mosse", "description": "", "geometry": {"type": "Point", "decimalLongitude": 13.891285363429198, "decimalLatitude": 56.0466982135753, "coordinates": [13.891285363429198, 56.0466982135753]}, "type": "none"}, {"name": "6 - Åraslövs mosse, p-platsen", "description": "", "geometry": {"type": "Point", "decimalLongitude": 13.9443801345258, "decimalLatitude": 56.0873055825388, "coordinates": [13.9443801345258, 56.0873055825388]}, "type": "none"}, {"name": "7 - Fridhemsgården", "description": "", "geometry": {"type": "Point", "decimalLongitude": 13.9907848415203, "decimalLatitude": 56.0913204446527, "coordinates": [13.9907848415203, 56.0913204446527]}, "type": "none"}, {"name": "8 - N Ströö, kyrkan", "description": "", "geometry": {"type": "Point", "decimalLongitude": 14.033541832439802, "decimalLatitude": 56.1084701347692, "coordinates": [14.033541832439802, 56.1084701347692]}, "type": "none"}, {"name": "9 - Åby ängar, p-platsen", "description": "", "geometry": {"type": "Point", "decimalLongitude": 14.1065659424329, "decimalLatitude": 56.0783270502231, "coordinates": [14.1065659424329, 56.0783270502231]}, "type": "none"}, {"name": "10 - Vinnö ängar", "description": "", "geometry": {"type": "Point", "decimalLongitude": 14.0831994916147, "decimalLatitude": 56.044030351359304, "coordinates": [14.0831994916147, 56.044030351359304]}, "type": "none"}, {"name": "11 - Bockeboda, Utfartsvägen", "description": "", "geometry": {"type": "Point", "decimalLongitude": 13.9935502134449, "decimalLatitude": 56.0290197270985, "coordinates": [13.9935502134449, 56.0290197270985]}, "type": "none"}, {"name": "12 - Uddarp, p-plats motionsspåren", "description": "", "geometry": {"type": "Point", "decimalLongitude": 14.040290925499498, "decimalLatitude": 56.01370829593, "coordinates": [14.040290925499498, 56.01370829593]}, "type": "none"}, {"name": "13 - Ovesholm, slottet/dammen", "description": "", "geometry": {"type": "Point", "decimalLongitude": 14.0078112321158, "decimalLatitude": 55.9983271835593, "coordinates": [14.0078112321158, 55.9983271835593]}, "type": "none"}, {"name": "14 - N Åsum övningsfältet", "description": "", "geometry": {"type": "Point", "decimalLongitude": 14.1300984866007, "decimalLatitude": 55.976515526723794, "coordinates": [14.1300984866007, 55.976515526723794]}, "type": "none"}, {"name": "15 - Åsums ängar/Fågeltornet", "description": "", "geometry": {"type": "Point", "decimalLongitude": 14.162247060084601, "decimalLatitude": 55.9966206463225, "coordinates": [14.162247060084601, 55.9966206463225]}, "type": "none"}, {"name": "16 - Hovby ängar/G:a Bränneriet", "description": "", "geometry": {"type": "Point", "decimalLongitude": 14.1974954289832, "decimalLatitude": 55.9622329255351, "coordinates": [14.1974954289832, 55.9622329255351]}, "type": "none"}, {"name": "17 - Lunden", "description": "", "geometry": {"type": "Point", "decimalLongitude": 14.1887638069048, "decimalLatitude": 55.9296910294454, "coordinates": [14.1887638069048, 55.9296910294454]}, "type": "none"}, {"name": "18 - Gringelstad, korsningen Gringelstadsv. och Böklins väg", "description": "", "geometry": {"type": "Point", "decimalLongitude": 14.114469357349, "decimalLatitude": 55.9308488762734, "coordinates": [14.114469357349, 55.9308488762734]}, "type": "none"}, {"name": "19 - Lyngsjön", "description": "", "geometry": {"type": "Point", "decimalLongitude": 14.068241713157198, "decimalLatitude": 55.930474744826604, "coordinates": [14.068241713157198, 55.930474744826604]}, "type": "none"}, {"name": "20 - Hommentorp, bron Vramsån", "description": "", "geometry": {"type": "Point", "decimalLongitude": 14.020990940689002, "decimalLatitude": 55.928002330255296, "coordinates": [14.020990940689002, 55.928002330255296]}, "type": "none"}], "yearStarted": 2010.0}, {"siteId": "be2e114c-a3ca-4449-b829-44cf3ea1eb55", "name": "Höör", "status": "active", "type": "", "description": "", "KartaTx": "03DSV", "area": "0", "projects": ["d0b2f329-c394-464b-b5ab-e1e205585a7c"], "extent": {"geometry": {"type": "Point", "coordinates": [13.594573287182838, 56.073532429566555], "decimalLongitude": 13.594573287182838, "decimalLatitude": 56.073532429566555, "areaKmSq": 0, "aream2": 0, "centre": [13.594573287182838, 56.073532429566555]}, "source": "Point"}, "geoIndex": {"type": "Point", "coordinates": [13.594573287182838, 56.073532429566555]}, "transectParts": [{"name": "1", "description": "", "geometry": {"type": "Point", "decimalLongitude": 13.6775671574893, "decimalLatitude": 55.99229430430571, "coordinates": [13.6775671574893, 55.99229430430571]}, "type": "none"}, {"name": "2", "description": "", "geometry": {"type": "Point", "decimalLongitude": 13.6667869362256, "decimalLatitude": 55.971570992663295, "coordinates": [13.6667869362256, 55.971570992663295]}, "type": "none"}, {"name": "3", "description": "", "geometry": {"type": "Point", "decimalLongitude": 13.6384572088331, "decimalLatitude": 55.9857193433352, "coordinates": [13.6384572088331, 55.9857193433352]}, "type": "none"}, {"name": "4", "description": "", "geometry": {"type": "Point", "decimalLongitude": 13.6499738282707, "decimalLatitude": 56.006547917905294, "coordinates": [13.6499738282707, 56.006547917905294]}, "type": "none"}, {"name": "5", "description": "", "geometry": {"type": "Point", "decimalLongitude": 13.6576195463699, "decimalLatitude": 56.0340276073766, "coordinates": [13.6576195463699, 56.0340276073766]}, "type": "none"}, {"name": "6", "description": "", "geometry": {"type": "Point", "decimalLongitude": 13.6722182666447, "decimalLatitude": 56.03931188311971, "coordinates": [13.6722182666447, 56.03931188311971]}, "type": "none"}, {"name": "7", "description": "", "geometry": {"type": "Point", "decimalLongitude": 13.6976704037887, "decimalLatitude": 56.049308087251205, "coordinates": [13.6976704037887, 56.049308087251205]}, "type": "none"}, {"name": "8", "description": "", "geometry": {"type": "Point", "decimalLongitude": 13.7025423840247, "decimalLatitude": 56.068023031291396, "coordinates": [13.7025423840247, 56.068023031291396]}, "type": "none"}, {"name": "9", "description": "", "geometry": {"type": "Point", "decimalLongitude": 13.7029106340132, "decimalLatitude": 56.0863196514561, "coordinates": [13.7029106340132, 56.0863196514561]}, "type": "none"}, {"name": "10", "description": "", "geometry": {"type": "Point", "decimalLongitude": 13.7147148428425, "decimalLatitude": 56.102420900272506, "coordinates": [13.7147148428425, 56.102420900272506]}, "type": "none"}, {"name": "11", "description": "", "geometry": {"type": "Point", "decimalLongitude": 13.6880806580008, "decimalLatitude": 56.1123606640864, "coordinates": [13.6880806580008, 56.1123606640864]}, "type": "none"}, {"name": "12", "description": "", "geometry": {"type": "Point", "decimalLongitude": 13.651337938120802, "decimalLatitude": 56.10581369360029, "coordinates": [13.651337938120802, 56.10581369360029]}, "type": "none"}, {"name": "13", "description": "", "geometry": {"type": "Point", "decimalLongitude": 13.6275182395561, "decimalLatitude": 56.1131305046992, "coordinates": [13.6275182395561, 56.1131305046992]}, "type": "none"}, {"name": "14", "description": "", "geometry": {"type": "Point", "decimalLongitude": 13.591965044703601, "decimalLatitude": 56.0938658518982, "coordinates": [13.591965044703601, 56.0938658518982]}, "type": "none"}, {"name": "15", "description": "", "geometry": {"type": "Point", "decimalLongitude": 13.560542617377902, "decimalLatitude": 56.099173539748605, "coordinates": [13.560542617377902, 56.099173539748605]}, "type": "none"}, {"name": "16", "description": "", "geometry": {"type": "Point", "decimalLongitude": 13.5333136149456, "decimalLatitude": 56.1030053710379, "coordinates": [13.5333136149456, 56.1030053710379]}, "type": "none"}, {"name": "17", "description": "", "geometry": {"type": "Point", "decimalLongitude": 13.502349554373698, "decimalLatitude": 56.119473789162505, "coordinates": [13.502349554373698, 56.119473789162505]}, "type": "none"}, {"name": "18", "description": "", "geometry": {"type": "Point", "decimalLongitude": 13.4811797530919, "decimalLatitude": 56.1115753841673, "coordinates": [13.4811797530919, 56.1115753841673]}, "type": "none"}, {"name": "19", "description": "", "geometry": {"type": "Point", "decimalLongitude": 13.4741491194306, "decimalLatitude": 56.0877251097152, "coordinates": [13.4741491194306, 56.0877251097152]}, "type": "none"}, {"name": "20", "description": "", "geometry": {"type": "Point", "decimalLongitude": 13.458994780620598, "decimalLatitude": 56.074806279869996, "coordinates": [13.458994780620598, 56.074806279869996]}, "type": "none"}], "yearStarted": 2013.0}, {"siteId": "70705cdc-f50e-41c5-aeab-67ad91829333", "name": "Nässjön-Froarp", "status": "active", "type": "", "description": "", "KartaTx": "03FNV", "area": "0", "projects": ["d0b2f329-c394-464b-b5ab-e1e205585a7c"], "extent": {"geometry": {"type": "Point", "coordinates": [15.185973699502437, 56.17143557894433], "decimalLongitude": 15.185973699502437, "decimalLatitude": 56.17143557894433, "areaKmSq": 0, "aream2": 0, "centre": [15.185973699502437, 56.17143557894433]}, "source": "Point"}, "geoIndex": {"type": "Point", "coordinates": [15.185973699502437, 56.17143557894433]}, "transectParts": [{"name": "1 - Uggl-BH-6", "description": "", "geometry": {"type": "Point", "decimalLongitude": 15.192300358315801, "decimalLatitude": 56.244101001060706, "coordinates": [15.192300358315801, 56.244101001060706]}, "type": "none"}, {"name": "2 - Uggl-BH-5", "description": "", "geometry": {"type": "Point", "decimalLongitude": 15.1666697690129, "decimalLatitude": 56.2364000716625, "coordinates": [15.1666697690129, 56.2364000716625]}, "type": "none"}, {"name": "3 - Hf.tax-Son-Näs-16", "description": "", "geometry": {"type": "Point", "decimalLongitude": 15.194540727721, "decimalLatitude": 56.22396736664739, "coordinates": [15.194540727721, 56.22396736664739]}, "type": "none"}, {"name": "4 - Hakarp-nattskärrelok", "description": "", "geometry": {"type": "Point", "decimalLongitude": 15.136172693213, "decimalLatitude": 56.2041847324448, "coordinates": [15.136172693213, 56.2041847324448]}, "type": "none"}, {"name": "5 - Uggl-BH-21", "description": "", "geometry": {"type": "Point", "decimalLongitude": 15.111726443489099, "decimalLatitude": 56.1963259899445, "coordinates": [15.111726443489099, 56.1963259899445]}, "type": "none"}, {"name": "6 - Vieryd", "description": "", "geometry": {"type": "Point", "decimalLongitude": 15.148586630415899, "decimalLatitude": 56.1727002322952, "coordinates": [15.148586630415899, 56.1727002322952]}, "type": "none"}, {"name": "7 - Hf.tax-Son-Näs-3", "description": "", "geometry": {"type": "Point", "decimalLongitude": 15.114692576393098, "decimalLatitude": 56.1809936152684, "coordinates": [15.114692576393098, 56.1809936152684]}, "type": "none"}, {"name": "8 - Hf.tax-Son-Näs-1", "description": "", "geometry": {"type": "Point", "decimalLongitude": 15.109096888715, "decimalLatitude": 56.168990120570605, "coordinates": [15.109096888715, 56.168990120570605]}, "type": "none"}, {"name": "9 - Järnaviks våtmark", "description": "", "geometry": {"type": "Point", "decimalLongitude": 15.080208767704699, "decimalLatitude": 56.1898850076155, "coordinates": [15.080208767704699, 56.1898850076155]}, "type": "none"}, {"name": "10 - Köpegårda", "description": "", "geometry": {"type": "Point", "decimalLongitude": 15.038155272787499, "decimalLatitude": 56.1930169012675, "coordinates": [15.038155272787499, 56.1930169012675]}, "type": "none"}, {"name": "11 - Eriksbergs stränder", "description": "", "geometry": {"type": "Point", "decimalLongitude": 14.9837746402793, "decimalLatitude": 56.1718752600369, "coordinates": [14.9837746402793, 56.1718752600369]}, "type": "none"}, {"name": "12 - Siggarp V utfarten", "description": "", "geometry": {"type": "Point", "decimalLongitude": 14.949421149177699, "decimalLatitude": 56.1854733171809, "coordinates": [14.949421149177699, 56.1854733171809]}, "type": "none"}, {"name": "13 - mot Granefors-vaktellokalen", "description": "", "geometry": {"type": "Point", "decimalLongitude": 14.908156014690302, "decimalLatitude": 56.19802393593061, "coordinates": [14.908156014690302, 56.19802393593061]}, "type": "none"}, {"name": "14 - Källaby", "description": "", "geometry": {"type": "Point", "decimalLongitude": 14.948770432002302, "decimalLatitude": 56.214649346147795, "coordinates": [14.948770432002302, 56.214649346147795]}, "type": "none"}, {"name": "15 - Björkenäs-Öllesjöarna", "description": "", "geometry": {"type": "Point", "decimalLongitude": 14.970483404583302, "decimalLatitude": 56.2323025830021, "coordinates": [14.970483404583302, 56.2323025830021]}, "type": "none"}, {"name": "16 - Långehall-Hemsjön", "description": "", "geometry": {"type": "Point", "decimalLongitude": 14.9596054504193, "decimalLatitude": 56.2583283339777, "coordinates": [14.9596054504193, 56.2583283339777]}, "type": "none"}, {"name": "17 - Metaremåla", "description": "", "geometry": {"type": "Point", "decimalLongitude": 14.933967169450199, "decimalLatitude": 56.2937162434997, "coordinates": [14.933967169450199, 56.2937162434997]}, "type": "none"}, {"name": "18 - Björnamåla-Sågdammen", "description": "", "geometry": {"type": "Point", "decimalLongitude": 14.915801644640698, "decimalLatitude": 56.286590533835295, "coordinates": [14.915801644640698, 56.286590533835295]}, "type": "none"}, {"name": "19 - Nötebråne", "description": "", "geometry": {"type": "Point", "decimalLongitude": 14.862860499363599, "decimalLatitude": 56.2311785288309, "coordinates": [14.862860499363599, 56.2311785288309]}, "type": "none"}, {"name": "20 - Ö om Froarp", "description": "", "geometry": {"type": "Point", "decimalLongitude": 14.862724605037599, "decimalLatitude": 56.2130888716181, "coordinates": [14.862724605037599, 56.2130888716181]}, "type": "none"}], "yearStarted": 2011.0}, {"siteId": "7b6bf547-8df9-45f2-8f40-c99211449831", "name": "Halmstad", "status": "active", "type": "", "description": "", "KartaTx": "04CNV", "area": "0", "projects": ["d0b2f329-c394-464b-b5ab-e1e205585a7c"], "extent": {"geometry": {"type": "Point", "coordinates": [12.818564722315827, 56.71257084486059], "decimalLongitude": 12.818564722315827, "decimalLatitude": 56.71257084486059, "areaKmSq": 0, "aream2": 0, "centre": [12.818564722315827, 56.71257084486059]}, "source": "Point"}, "geoIndex": {"type": "Point", "coordinates": [12.818564722315827, 56.71257084486059]}, "transectParts": [{"name": "1", "description": "", "geometry": {"type": "Point", "decimalLongitude": 12.926622565056, "decimalLatitude": 56.6752729292412, "coordinates": [12.926622565056, 56.6752729292412]}, "type": "none"}, {"name": "2", "description": "", "geometry": {"type": "Point", "decimalLongitude": 12.9102684547626, "decimalLatitude": 56.640409471225794, "coordinates": [12.9102684547626, 56.640409471225794]}, "type": "none"}, {"name": "3", "description": "", "geometry": {"type": "Point", "decimalLongitude": 12.927735361508802, "decimalLatitude": 56.6363045089488, "coordinates": [12.927735361508802, 56.6363045089488]}, "type": "none"}, {"name": "4", "description": "", "geometry": {"type": "Point", "decimalLongitude": 12.856395095503302, "decimalLatitude": 56.6466370500001, "coordinates": [12.856395095503302, 56.6466370500001]}, "type": "none"}, {"name": "5", "description": "", "geometry": {"type": "Point", "decimalLongitude": 12.771278888234699, "decimalLatitude": 56.676828799503205, "coordinates": [12.771278888234699, 56.676828799503205]}, "type": "none"}, {"name": "6", "description": "", "geometry": {"type": "Point", "decimalLongitude": 12.797656593754402, "decimalLatitude": 56.6964640297437, "coordinates": [12.797656593754402, 56.6964640297437]}, "type": "none"}, {"name": "7", "description": "", "geometry": {"type": "Point", "decimalLongitude": 12.821178480613, "decimalLatitude": 56.7095914795257, "coordinates": [12.821178480613, 56.7095914795257]}, "type": "none"}, {"name": "8", "description": "", "geometry": {"type": "Point", "decimalLongitude": 12.785411127065199, "decimalLatitude": 56.7216855273405, "coordinates": [12.785411127065199, 56.7216855273405]}, "type": "none"}, {"name": "9", "description": "", "geometry": {"type": "Point", "decimalLongitude": 12.6998324594752, "decimalLatitude": 56.7130925741446, "coordinates": [12.6998324594752, 56.7130925741446]}, "type": "none"}, {"name": "10", "description": "", "geometry": {"type": "Point", "decimalLongitude": 12.6907423691005, "decimalLatitude": 56.7360660904505, "coordinates": [12.6907423691005, 56.7360660904505]}, "type": "none"}, {"name": "11", "description": "", "geometry": {"type": "Point", "decimalLongitude": 12.6611289640012, "decimalLatitude": 56.75744439033001, "coordinates": [12.6611289640012, 56.75744439033001]}, "type": "none"}, {"name": "12", "description": "", "geometry": {"type": "Point", "decimalLongitude": 12.6811484132477, "decimalLatitude": 56.7732235266037, "coordinates": [12.6811484132477, 56.7732235266037]}, "type": "none"}, {"name": "13", "description": "", "geometry": {"type": "Point", "decimalLongitude": 12.7644056736765, "decimalLatitude": 56.7421817855874, "coordinates": [12.7644056736765, 56.7421817855874]}, "type": "none"}, {"name": "14", "description": "", "geometry": {"type": "Point", "decimalLongitude": 12.777464108785901, "decimalLatitude": 56.7725105558093, "coordinates": [12.777464108785901, 56.7725105558093]}, "type": "none"}, {"name": "15", "description": "", "geometry": {"type": "Point", "decimalLongitude": 12.8468170145635, "decimalLatitude": 56.77290078889, "coordinates": [12.8468170145635, 56.77290078889]}, "type": "none"}, {"name": "16", "description": "", "geometry": {"type": "Point", "decimalLongitude": 12.8818341599583, "decimalLatitude": 56.751894126132704, "coordinates": [12.8818341599583, 56.751894126132704]}, "type": "none"}, {"name": "17", "description": "", "geometry": {"type": "Point", "decimalLongitude": 12.844966430190599, "decimalLatitude": 56.7365754562456, "coordinates": [12.844966430190599, 56.7365754562456]}, "type": "none"}, {"name": "18", "description": "", "geometry": {"type": "Point", "decimalLongitude": 12.8505500177879, "decimalLatitude": 56.714191659107705, "coordinates": [12.8505500177879, 56.714191659107705]}, "type": "none"}, {"name": "19", "description": "", "geometry": {"type": "Point", "decimalLongitude": 12.8705435539271, "decimalLatitude": 56.7155092045637, "coordinates": [12.8705435539271, 56.7155092045637]}, "type": "none"}, {"name": "20", "description": "", "geometry": {"type": "Point", "decimalLongitude": 12.9279300689979, "decimalLatitude": 56.713308826992396, "coordinates": [12.9279300689979, 56.713308826992396]}, "type": "none"}], "yearStarted": 2013.0}, {"siteId": "d76ea9c8-d442-4ca7-8f5f-cbb78a0c86ff", "name": "Bjärerundan", "status": "active", "type": "", "description": "", "KartaTx": "04CSV", "area": "0", "projects": ["d0b2f329-c394-464b-b5ab-e1e205585a7c"], "extent": {"geometry": {"type": "Point", "coordinates": [12.782126323713207, 56.4199505800697], "decimalLongitude": 12.782126323713207, "decimalLatitude": 56.4199505800697, "areaKmSq": 0, "aream2": 0, "centre": [12.782126323713207, 56.4199505800697]}, "source": "Point"}, "geoIndex": {"type": "Point", "coordinates": [12.782126323713207, 56.4199505800697]}, "transectParts": [{"name": "1", "description": "", "geometry": {"type": "Point", "decimalLongitude": 12.872462897486901, "decimalLatitude": 56.4295049787345, "coordinates": [12.872462897486901, 56.4295049787345]}, "type": "none"}, {"name": "2", "description": "", "geometry": {"type": "Point", "decimalLongitude": 12.932896187165401, "decimalLatitude": 56.44006690290129, "coordinates": [12.932896187165401, 56.44006690290129]}, "type": "none"}, {"name": "3", "description": "", "geometry": {"type": "Point", "decimalLongitude": 12.920017922555498, "decimalLatitude": 56.4165323804231, "coordinates": [12.920017922555498, 56.4165323804231]}, "type": "none"}, {"name": "4", "description": "", "geometry": {"type": "Point", "decimalLongitude": 12.896155076775802, "decimalLatitude": 56.4012747394977, "coordinates": [12.896155076775802, 56.4012747394977]}, "type": "none"}, {"name": "5", "description": "", "geometry": {"type": "Point", "decimalLongitude": 12.911221716489502, "decimalLatitude": 56.378697419194495, "coordinates": [12.911221716489502, 56.378697419194495]}, "type": "none"}, {"name": "6", "description": "", "geometry": {"type": "Point", "decimalLongitude": 12.881263528697, "decimalLatitude": 56.3824864421393, "coordinates": [12.881263528697, 56.3824864421393]}, "type": "none"}, {"name": "7", "description": "", "geometry": {"type": "Point", "decimalLongitude": 12.8333928927706, "decimalLatitude": 56.3957237894096, "coordinates": [12.8333928927706, 56.3957237894096]}, "type": "none"}, {"name": "8", "description": "", "geometry": {"type": "Point", "decimalLongitude": 12.8388076141201, "decimalLatitude": 56.3769482797219, "coordinates": [12.8388076141201, 56.3769482797219]}, "type": "none"}, {"name": "9", "description": "", "geometry": {"type": "Point", "decimalLongitude": 12.785434751940802, "decimalLatitude": 56.3940967881076, "coordinates": [12.785434751940802, 56.3940967881076]}, "type": "none"}, {"name": "10", "description": "", "geometry": {"type": "Point", "decimalLongitude": 12.7286091954172, "decimalLatitude": 56.409232253342, "coordinates": [12.7286091954172, 56.409232253342]}, "type": "none"}, {"name": "11", "description": "", "geometry": {"type": "Point", "decimalLongitude": 12.6765938803317, "decimalLatitude": 56.386579196116294, "coordinates": [12.6765938803317, 56.386579196116294]}, "type": "none"}, {"name": "12", "description": "", "geometry": {"type": "Point", "decimalLongitude": 12.666890999781302, "decimalLatitude": 56.4099847329177, "coordinates": [12.666890999781302, 56.4099847329177]}, "type": "none"}, {"name": "13", "description": "", "geometry": {"type": "Point", "decimalLongitude": 12.6401029724494, "decimalLatitude": 56.43507518536611, "coordinates": [12.6401029724494, 56.43507518536611]}, "type": "none"}, {"name": "14", "description": "", "geometry": {"type": "Point", "decimalLongitude": 12.692691520679901, "decimalLatitude": 56.432237499027, "coordinates": [12.692691520679901, 56.432237499027]}, "type": "none"}, {"name": "15", "description": "", "geometry": {"type": "Point", "decimalLongitude": 12.684225480509, "decimalLatitude": 56.4539860032718, "coordinates": [12.684225480509, 56.4539860032718]}, "type": "none"}, {"name": "16", "description": "", "geometry": {"type": "Point", "decimalLongitude": 12.7089701023486, "decimalLatitude": 56.4681569151198, "coordinates": [12.7089701023486, 56.4681569151198]}, "type": "none"}, {"name": "17", "description": "", "geometry": {"type": "Point", "decimalLongitude": 12.7528655458303, "decimalLatitude": 56.460870517576396, "coordinates": [12.7528655458303, 56.460870517576396]}, "type": "none"}, {"name": "18", "description": "", "geometry": {"type": "Point", "decimalLongitude": 12.7688800462713, "decimalLatitude": 56.447515795732, "coordinates": [12.7688800462713, 56.447515795732]}, "type": "none"}, {"name": "19", "description": "", "geometry": {"type": "Point", "decimalLongitude": 12.829550754502598, "decimalLatitude": 56.43371168479239, "coordinates": [12.829550754502598, 56.43371168479239]}, "type": "none"}, {"name": "20", "description": "", "geometry": {"type": "Point", "decimalLongitude": 12.847953995678502, "decimalLatitude": 56.4145640840518, "coordinates": [12.847953995678502, 56.4145640840518]}, "type": "none"}], "yearStarted": 2012.0}, {"siteId": "af24d1a3-bae1-4644-8839-a0cc50bb8739", "name": "Urshult, Tingsryds kn", "status": "active", "type": "", "description": "", "KartaTx": "04ESO", "area": "0", "projects": ["d0b2f329-c394-464b-b5ab-e1e205585a7c"], "extent": {"geometry": {"type": "Point", "coordinates": [14.774372828969618, 56.494770841893036], "decimalLongitude": 14.774372828969618, "decimalLatitude": 56.494770841893036, "areaKmSq": 0, "aream2": 0, "centre": [14.774372828969618, 56.494770841893036]}, "source": "Point"}, "geoIndex": {"type": "Point", "coordinates": [14.774372828969618, 56.494770841893036]}, "transectParts": [{"name": "1", "description": "", "geometry": {"type": "Point", "decimalLongitude": 14.869186911765402, "decimalLatitude": 56.58031581793529, "coordinates": [14.869186911765402, 56.58031581793529]}, "type": "none"}, {"name": "2", "description": "", "geometry": {"type": "Point", "decimalLongitude": 14.8493706781585, "decimalLatitude": 56.56597502065829, "coordinates": [14.8493706781585, 56.56597502065829]}, "type": "none"}, {"name": "3", "description": "", "geometry": {"type": "Point", "decimalLongitude": 14.8121326170508, "decimalLatitude": 56.574160935047104, "coordinates": [14.8121326170508, 56.574160935047104]}, "type": "none"}, {"name": "4", "description": "", "geometry": {"type": "Point", "decimalLongitude": 14.7838636896367, "decimalLatitude": 56.5822661183665, "coordinates": [14.7838636896367, 56.5822661183665]}, "type": "none"}, {"name": "5", "description": "", "geometry": {"type": "Point", "decimalLongitude": 14.802820013741501, "decimalLatitude": 56.5547230668205, "coordinates": [14.802820013741501, 56.5547230668205]}, "type": "none"}, {"name": "6", "description": "", "geometry": {"type": "Point", "decimalLongitude": 14.7984088224404, "decimalLatitude": 56.529791904861895, "coordinates": [14.7984088224404, 56.529791904861895]}, "type": "none"}, {"name": "7", "description": "", "geometry": {"type": "Point", "decimalLongitude": 14.7610896994628, "decimalLatitude": 56.541805716141795, "coordinates": [14.7610896994628, 56.541805716141795]}, "type": "none"}, {"name": "8", "description": "", "geometry": {"type": "Point", "decimalLongitude": 14.7227828573991, "decimalLatitude": 56.53519089544479, "coordinates": [14.7227828573991, 56.53519089544479]}, "type": "none"}, {"name": "9", "description": "", "geometry": {"type": "Point", "decimalLongitude": 14.697410767908401, "decimalLatitude": 56.5179387765484, "coordinates": [14.697410767908401, 56.5179387765484]}, "type": "none"}, {"name": "10", "description": "", "geometry": {"type": "Point", "decimalLongitude": 14.7014503931947, "decimalLatitude": 56.4930069866047, "coordinates": [14.7014503931947, 56.4930069866047]}, "type": "none"}, {"name": "11", "description": "", "geometry": {"type": "Point", "decimalLongitude": 14.7139508925647, "decimalLatitude": 56.4534923000992, "coordinates": [14.7139508925647, 56.4534923000992]}, "type": "none"}, {"name": "12", "description": "", "geometry": {"type": "Point", "decimalLongitude": 14.735239602874598, "decimalLatitude": 56.43470938529121, "coordinates": [14.735239602874598, 56.43470938529121]}, "type": "none"}, {"name": "13", "description": "", "geometry": {"type": "Point", "decimalLongitude": 14.7495910512624, "decimalLatitude": 56.417588377747705, "coordinates": [14.7495910512624, 56.417588377747705]}, "type": "none"}, {"name": "14", "description": "", "geometry": {"type": "Point", "decimalLongitude": 14.7832774971055, "decimalLatitude": 56.420636936409295, "coordinates": [14.7832774971055, 56.420636936409295]}, "type": "none"}, {"name": "15", "description": "", "geometry": {"type": "Point", "decimalLongitude": 14.8156695250412, "decimalLatitude": 56.436275589946604, "coordinates": [14.8156695250412, 56.436275589946604]}, "type": "none"}, {"name": "16", "description": "", "geometry": {"type": "Point", "decimalLongitude": 14.821264724461, "decimalLatitude": 56.458126389358505, "coordinates": [14.821264724461, 56.458126389358505]}, "type": "none"}, {"name": "17", "description": "", "geometry": {"type": "Point", "decimalLongitude": 14.8199730410669, "decimalLatitude": 56.4804252685059, "coordinates": [14.8199730410669, 56.4804252685059]}, "type": "none"}, {"name": "18", "description": "", "geometry": {"type": "Point", "decimalLongitude": 14.819562230842, "decimalLatitude": 56.5012581641769, "coordinates": [14.819562230842, 56.5012581641769]}, "type": "none"}, {"name": "19", "description": "", "geometry": {"type": "Point", "decimalLongitude": 14.823678162074401, "decimalLatitude": 56.5179237350041, "coordinates": [14.823678162074401, 56.5179237350041]}, "type": "none"}, {"name": "20", "description": "", "geometry": {"type": "Point", "decimalLongitude": 14.8515001075312, "decimalLatitude": 56.543431169167796, "coordinates": [14.8515001075312, 56.543431169167796]}, "type": "none"}], "yearStarted": 2010.0}, {"siteId": "f2b733a8-b36d-4f69-af21-4d0070d9a196", "name": "Värnamoområdet", "status": "active", "type": "", "description": "", "KartaTx": "05DNO", "area": "0", "projects": ["d0b2f329-c394-464b-b5ab-e1e205585a7c"], "extent": {"geometry": {"type": "Point", "coordinates": [14.010977630701056, 57.174664240292685], "decimalLongitude": 14.010977630701056, "decimalLatitude": 57.174664240292685, "areaKmSq": 0, "aream2": 0, "centre": [14.010977630701056, 57.174664240292685]}, "source": "Point"}, "geoIndex": {"type": "Point", "coordinates": [14.010977630701056, 57.174664240292685]}, "transectParts": [{"name": "1 - Apladalen", "description": "", "geometry": {"type": "Point", "decimalLongitude": 14.051683684622901, "decimalLatitude": 57.178272943068706, "coordinates": [14.051683684622901, 57.178272943068706]}, "type": "none"}, {"name": "2 - Tånnö pir R1", "description": "", "geometry": {"type": "Point", "decimalLongitude": 14.044592240511598, "decimalLatitude": 57.101382739359295, "coordinates": [14.044592240511598, 57.101382739359295]}, "type": "none"}, {"name": "3 - Hyltan", "description": "", "geometry": {"type": "Point", "decimalLongitude": 14.0890382211929, "decimalLatitude": 57.1037957906034, "coordinates": [14.0890382211929, 57.1037957906034]}, "type": "none"}, {"name": "4 - Drömminge X", "description": "", "geometry": {"type": "Point", "decimalLongitude": 14.1464689615801, "decimalLatitude": 57.1481282426478, "coordinates": [14.1464689615801, 57.1481282426478]}, "type": "none"}, {"name": "5 - Hindsekind", "description": "", "geometry": {"type": "Point", "decimalLongitude": 14.134667764178, "decimalLatitude": 57.18995852970679, "coordinates": [14.134667764178, 57.18995852970679]}, "type": "none"}, {"name": "6 - Hov X", "description": "", "geometry": {"type": "Point", "decimalLongitude": 14.098407344237499, "decimalLatitude": 57.2229253639153, "coordinates": [14.098407344237499, 57.2229253639153]}, "type": "none"}, {"name": "7 - Sköndal", "description": "", "geometry": {"type": "Point", "decimalLongitude": 14.1157257882659, "decimalLatitude": 57.2424690987397, "coordinates": [14.1157257882659, 57.2424690987397]}, "type": "none"}, {"name": "8 - Ya-vägen", "description": "", "geometry": {"type": "Point", "decimalLongitude": 14.1176172541531, "decimalLatitude": 57.2644982209684, "coordinates": [14.1176172541531, 57.2644982209684]}, "type": "none"}, {"name": "9 - Jonsingsgård", "description": "", "geometry": {"type": "Point", "decimalLongitude": 14.032559248784, "decimalLatitude": 57.2494953694831, "coordinates": [14.032559248784, 57.2494953694831]}, "type": "none"}, {"name": "10 - Maramö N", "description": "", "geometry": {"type": "Point", "decimalLongitude": 13.9584813572117, "decimalLatitude": 57.2464518118226, "coordinates": [13.9584813572117, 57.2464518118226]}, "type": "none"}, {"name": "11 - Vällersten", "description": "", "geometry": {"type": "Point", "decimalLongitude": 13.9958553841205, "decimalLatitude": 57.227596212178106, "coordinates": [13.9958553841205, 57.227596212178106]}, "type": "none"}, {"name": "12 - Svinanäs", "description": "", "geometry": {"type": "Point", "decimalLongitude": 13.9661987071809, "decimalLatitude": 57.20129864026771, "coordinates": [13.9661987071809, 57.20129864026771]}, "type": "none"}, {"name": "13 - Sjögläntan", "description": "", "geometry": {"type": "Point", "decimalLongitude": 13.933307206102299, "decimalLatitude": 57.1841963699275, "coordinates": [13.933307206102299, 57.1841963699275]}, "type": "none"}, {"name": "14 - Ekåsen", "description": "", "geometry": {"type": "Point", "decimalLongitude": 13.8776163824215, "decimalLatitude": 57.205447795169604, "coordinates": [13.8776163824215, 57.205447795169604]}, "type": "none"}, {"name": "15 - Fänestad", "description": "", "geometry": {"type": "Point", "decimalLongitude": 13.8426243430575, "decimalLatitude": 57.1756248645623, "coordinates": [13.8426243430575, 57.1756248645623]}, "type": "none"}, {"name": "16 - Spångö", "description": "", "geometry": {"type": "Point", "decimalLongitude": 13.855736601784999, "decimalLatitude": 57.1464590320868, "coordinates": [13.855736601784999, 57.1464590320868]}, "type": "none"}, {"name": "17 - G:la Åminne", "description": "", "geometry": {"type": "Point", "decimalLongitude": 13.894353504042401, "decimalLatitude": 57.1265753427395, "coordinates": [13.894353504042401, 57.1265753427395]}, "type": "none"}, {"name": "18 - Torsbg/Kylah.", "description": "", "geometry": {"type": "Point", "decimalLongitude": 13.9471325132076, "decimalLatitude": 57.098268543664204, "coordinates": [13.9471325132076, 57.098268543664204]}, "type": "none"}, {"name": "19 - Tjutaryd", "description": "", "geometry": {"type": "Point", "decimalLongitude": 14.0103300171561, "decimalLatitude": 57.1307599540361, "coordinates": [14.0103300171561, 57.1307599540361]}, "type": "none"}, {"name": "20 - Osudden", "description": "", "geometry": {"type": "Point", "decimalLongitude": 14.044972856958301, "decimalLatitude": 57.1629106518221, "coordinates": [14.044972856958301, 57.1629106518221]}, "type": "none"}], "yearStarted": 2010.0}, {"siteId": "c2120e51-1145-4c1d-a229-06cbff461ae9", "name": "Rydaholm", "status": "active", "type": "", "description": "", "KartaTx": "05ESV", "area": "0", "projects": ["d0b2f329-c394-464b-b5ab-e1e205585a7c"], "extent": {"geometry": {"type": "Point", "coordinates": [14.405483202534281, 56.9676871763866], "decimalLongitude": 14.405483202534281, "decimalLatitude": 56.9676871763866, "areaKmSq": 0, "aream2": 0, "centre": [14.405483202534281, 56.9676871763866]}, "source": "Point"}, "geoIndex": {"type": "Point", "coordinates": [14.405483202534281, 56.9676871763866]}, "transectParts": [{"name": "1 - Hössjö Södra", "description": "", "geometry": {"type": "Point", "decimalLongitude": 14.517687811164699, "decimalLatitude": 57.005854187844, "coordinates": [14.517687811164699, 57.005854187844]}, "type": "none"}, {"name": "2 - Berg (Missionshus)", "description": "", "geometry": {"type": "Point", "decimalLongitude": 14.4948516009938, "decimalLatitude": 57.025240025706, "coordinates": [14.4948516009938, 57.025240025706]}, "type": "none"}, {"name": "3 - Stenshult (Korsningen)", "description": "", "geometry": {"type": "Point", "decimalLongitude": 14.4400885174746, "decimalLatitude": 57.012431534536894, "coordinates": [14.4400885174746, 57.012431534536894]}, "type": "none"}, {"name": "4 - Agnarydssjön (östra infart)", "description": "", "geometry": {"type": "Point", "decimalLongitude": 14.3937875252513, "decimalLatitude": 57.0052897380262, "coordinates": [14.3937875252513, 57.0052897380262]}, "type": "none"}, {"name": "5 - Loshyltan (infart)", "description": "", "geometry": {"type": "Point", "decimalLongitude": 14.362298156447402, "decimalLatitude": 57.004939413663394, "coordinates": [14.362298156447402, 57.004939413663394]}, "type": "none"}, {"name": "6 - Sävrarp (dammkorsning)", "description": "", "geometry": {"type": "Point", "decimalLongitude": 14.328989708522698, "decimalLatitude": 56.9915281871189, "coordinates": [14.328989708522698, 56.9915281871189]}, "type": "none"}, {"name": "7 - Nederled (Kungshall P-plats)", "description": "", "geometry": {"type": "Point", "decimalLongitude": 14.2796437904495, "decimalLatitude": 56.9807333285791, "coordinates": [14.2796437904495, 56.9807333285791]}, "type": "none"}, {"name": "8 - Luveryd (Norra milstenen)", "description": "", "geometry": {"type": "Point", "decimalLongitude": 14.2860161001054, "decimalLatitude": 56.9603877401023, "coordinates": [14.2860161001054, 56.9603877401023]}, "type": "none"}, {"name": "9 - Linnås (söder backen)", "description": "", "geometry": {"type": "Point", "decimalLongitude": 14.285108774688, "decimalLatitude": 56.937465668912, "coordinates": [14.285108774688, 56.937465668912]}, "type": "none"}, {"name": "10 - Stammaderna (Helge å)", "description": "", "geometry": {"type": "Point", "decimalLongitude": 14.277267763137601, "decimalLatitude": 56.913875094602204, "coordinates": [14.277267763137601, 56.913875094602204]}, "type": "none"}, {"name": "11 - Malaberg (Ljungabo göl)", "description": "", "geometry": {"type": "Point", "decimalLongitude": 14.267571039665501, "decimalLatitude": 56.898936973350295, "coordinates": [14.267571039665501, 56.898936973350295]}, "type": "none"}, {"name": "12 - Älganäs (södra sjöände)", "description": "", "geometry": {"type": "Point", "decimalLongitude": 14.3618574931697, "decimalLatitude": 56.915617706799495, "coordinates": [14.3618574931697, 56.915617706799495]}, "type": "none"}, {"name": "13 - Sörhult", "description": "", "geometry": {"type": "Point", "decimalLongitude": 14.350789438631, "decimalLatitude": 56.9350502022316, "coordinates": [14.350789438631, 56.9350502022316]}, "type": "none"}, {"name": "14 - Spånhyltan öster", "description": "", "geometry": {"type": "Point", "decimalLongitude": 14.3696580020873, "decimalLatitude": 56.9578917254943, "coordinates": [14.3696580020873, 56.9578917254943]}, "type": "none"}, {"name": "15 - Korsmon", "description": "", "geometry": {"type": "Point", "decimalLongitude": 14.4004650182345, "decimalLatitude": 56.9613402181385, "coordinates": [14.4004650182345, 56.9613402181385]}, "type": "none"}, {"name": "16 - Mexarp Fågeltorn (Bron)", "description": "", "geometry": {"type": "Point", "decimalLongitude": 14.417739997631301, "decimalLatitude": 56.984847728628104, "coordinates": [14.417739997631301, 56.984847728628104]}, "type": "none"}, {"name": "17 - Exhult (Myrkanten)", "description": "", "geometry": {"type": "Point", "decimalLongitude": 14.4366252075088, "decimalLatitude": 56.9579514294419, "coordinates": [14.4366252075088, 56.9579514294419]}, "type": "none"}, {"name": "18 - Hjortsberga kyrka (W kyrkgöl)", "description": "", "geometry": {"type": "Point", "decimalLongitude": 14.4694632982172, "decimalLatitude": 56.9264154655634, "coordinates": [14.4694632982172, 56.9264154655634]}, "type": "none"}, {"name": "19 - Sköldstad (Karlsborg)", "description": "", "geometry": {"type": "Point", "decimalLongitude": 14.5206290694286, "decimalLatitude": 56.9477697059845, "coordinates": [14.5206290694286, 56.9477697059845]}, "type": "none"}, {"name": "20 - Hjärtanäs (nordväst ån)", "description": "", "geometry": {"type": "Point", "decimalLongitude": 14.5487781205305, "decimalLatitude": 56.937072387864, "coordinates": [14.5487781205305, 56.937072387864]}, "type": "none"}], "yearStarted": 2010.0}, {"siteId": "07f12008-0824-4af1-89b7-f07c42f8228f", "name": "Åseda", "status": "active", "type": "", "description": "", "KartaTx": "05FNV", "area": "0", "projects": ["d0b2f329-c394-464b-b5ab-e1e205585a7c"], "extent": {"geometry": {"type": "Point", "coordinates": [15.189359176963228, 57.110978207766], "decimalLongitude": 15.189359176963228, "decimalLatitude": 57.110978207766, "areaKmSq": 0, "aream2": 0, "centre": [15.189359176963228, 57.110978207766]}, "source": "Point"}, "geoIndex": {"type": "Point", "coordinates": [15.189359176963228, 57.110978207766]}, "transectParts": [{"name": "1", "description": "", "geometry": {"type": "Point", "decimalLongitude": 15.057131426649402, "decimalLatitude": 57.0737518312284, "coordinates": [15.057131426649402, 57.0737518312284]}, "type": "none"}, {"name": "2", "description": "", "geometry": {"type": "Point", "decimalLongitude": 15.0682262429486, "decimalLatitude": 57.0937623048448, "coordinates": [15.0682262429486, 57.0937623048448]}, "type": "none"}, {"name": "3", "description": "", "geometry": {"type": "Point", "decimalLongitude": 15.074407367041301, "decimalLatitude": 57.118304940175705, "coordinates": [15.074407367041301, 57.118304940175705]}, "type": "none"}, {"name": "4", "description": "", "geometry": {"type": "Point", "decimalLongitude": 15.096855590708001, "decimalLatitude": 57.1460562172145, "coordinates": [15.096855590708001, 57.1460562172145]}, "type": "none"}, {"name": "5", "description": "", "geometry": {"type": "Point", "decimalLongitude": 15.1517770941869, "decimalLatitude": 57.14555552552589, "coordinates": [15.1517770941869, 57.14555552552589]}, "type": "none"}, {"name": "6", "description": "", "geometry": {"type": "Point", "decimalLongitude": 15.1880476625093, "decimalLatitude": 57.133086867818896, "coordinates": [15.1880476625093, 57.133086867818896]}, "type": "none"}, {"name": "7", "description": "", "geometry": {"type": "Point", "decimalLongitude": 15.2179231797473, "decimalLatitude": 57.138205380948, "coordinates": [15.2179231797473, 57.138205380948]}, "type": "none"}, {"name": "8", "description": "", "geometry": {"type": "Point", "decimalLongitude": 15.2216880267586, "decimalLatitude": 57.1581671677928, "coordinates": [15.2216880267586, 57.1581671677928]}, "type": "none"}, {"name": "9", "description": "", "geometry": {"type": "Point", "decimalLongitude": 15.2490267672852, "decimalLatitude": 57.1588752291219, "coordinates": [15.2490267672852, 57.1588752291219]}, "type": "none"}, {"name": "10", "description": "", "geometry": {"type": "Point", "decimalLongitude": 15.2905424169146, "decimalLatitude": 57.15744533060229, "coordinates": [15.2905424169146, 57.15744533060229]}, "type": "none"}, {"name": "11", "description": "", "geometry": {"type": "Point", "decimalLongitude": 15.274435162355099, "decimalLatitude": 57.12373078728721, "coordinates": [15.274435162355099, 57.12373078728721]}, "type": "none"}, {"name": "12", "description": "", "geometry": {"type": "Point", "decimalLongitude": 15.3009869674756, "decimalLatitude": 57.113747250825796, "coordinates": [15.3009869674756, 57.113747250825796]}, "type": "none"}, {"name": "13", "description": "", "geometry": {"type": "Point", "decimalLongitude": 15.3281262257953, "decimalLatitude": 57.1044428182285, "coordinates": [15.3281262257953, 57.1044428182285]}, "type": "none"}, {"name": "14", "description": "", "geometry": {"type": "Point", "decimalLongitude": 15.3535155006711, "decimalLatitude": 57.0805878709593, "coordinates": [15.3535155006711, 57.0805878709593]}, "type": "none"}, {"name": "15", "description": "", "geometry": {"type": "Point", "decimalLongitude": 15.3145210858799, "decimalLatitude": 57.0813748529002, "coordinates": [15.3145210858799, 57.0813748529002]}, "type": "none"}, {"name": "16", "description": "", "geometry": {"type": "Point", "decimalLongitude": 15.277140902359099, "decimalLatitude": 57.0856497053708, "coordinates": [15.277140902359099, 57.0856497053708]}, "type": "none"}, {"name": "17", "description": "", "geometry": {"type": "Point", "decimalLongitude": 15.247007987507802, "decimalLatitude": 57.09114029639729, "coordinates": [15.247007987507802, 57.09114029639729]}, "type": "none"}, {"name": "18", "description": "", "geometry": {"type": "Point", "decimalLongitude": 15.159979017681902, "decimalLatitude": 57.080628353116, "coordinates": [15.159979017681902, 57.080628353116]}, "type": "none"}, {"name": "19", "description": "", "geometry": {"type": "Point", "decimalLongitude": 15.1263814144495, "decimalLatitude": 57.0701146323324, "coordinates": [15.1263814144495, 57.0701146323324]}, "type": "none"}, {"name": "20", "description": "", "geometry": {"type": "Point", "decimalLongitude": 15.0910875615289, "decimalLatitude": 57.0690830354444, "coordinates": [15.0910875615289, 57.0690830354444]}, "type": "none"}], "yearStarted": 2012.0}, {"siteId": "ca21cd92-736e-4d85-87d1-636bdbf4f74c", "name": "Högsby", "status": "active", "type": "", "description": "Idhultesjön", "KartaTx": "05GNV", "area": "0", "projects": ["d0b2f329-c394-464b-b5ab-e1e205585a7c"], "extent": {"geometry": {"type": "Point", "coordinates": [16.108534820091748, 57.17209954486181], "decimalLongitude": 16.108534820091748, "decimalLatitude": 57.17209954486181, "areaKmSq": 0, "aream2": 0, "centre": [16.108534820091748, 57.17209954486181]}, "source": "Point"}, "geoIndex": {"type": "Point", "coordinates": [16.108534820091748, 57.17209954486181]}, "transectParts": [{"name": "1", "description": "Råsten (söder Bankeberg)", "geometry": {"type": "Point", "decimalLongitude": 16.1980204967928, "decimalLatitude": 57.1048683088735, "coordinates": [16.1980204967928, 57.1048683088735]}, "type": "none"}, {"name": "2", "description": "Målen, NO Ruda", "geometry": {"type": "Point", "decimalLongitude": 16.149238113338303, "decimalLatitude": 57.1186963593201, "coordinates": [16.149238113338303, 57.1186963593201]}, "type": "none"}, {"name": "3", "description": "Långemåla", "geometry": {"type": "Point", "decimalLongitude": 16.1661306814726, "decimalLatitude": 57.076677554314394, "coordinates": [16.1661306814726, 57.076677554314394]}, "type": "none"}, {"name": "4", "description": "Osemåla", "geometry": {"type": "Point", "decimalLongitude": 16.113042952042402, "decimalLatitude": 57.07744731430571, "coordinates": [16.113042952042402, 57.07744731430571]}, "type": "none"}, {"name": "5", "description": "NO Hultsnäs (vsk Kohags/Orrängsvägen)", "geometry": {"type": "Point", "decimalLongitude": 16.0792304760234, "decimalLatitude": 57.0716347731971, "coordinates": [16.0792304760234, 57.0716347731971]}, "type": "none"}, {"name": "6", "description": "Älmhultsbro", "geometry": {"type": "Point", "decimalLongitude": 16.0644235103571, "decimalLatitude": 57.0950853652596, "coordinates": [16.0644235103571, 57.0950853652596]}, "type": "none"}, {"name": "7", "description": "Ruda gård (NO järnvägen)", "geometry": {"type": "Point", "decimalLongitude": 16.1106838496727, "decimalLatitude": 57.12763190225429, "coordinates": [16.1106838496727, 57.12763190225429]}, "type": "none"}, {"name": "8", "description": "Ekeby", "geometry": {"type": "Point", "decimalLongitude": 16.050676747966403, "decimalLatitude": 57.14198698797521, "coordinates": [16.050676747966403, 57.14198698797521]}, "type": "none"}, {"name": "9", "description": "Kolsrum", "geometry": {"type": "Point", "decimalLongitude": 16.016664423251, "decimalLatitude": 57.156164646745005, "coordinates": [16.016664423251, 57.156164646745005]},