[{"status": "active", "description": "", "geoIndex": {"type": "Point", "coordinates": [13.246586, 55.0, 6.0]}, "siteId": "35faba92-56d4-4ad7-9a08-982c01d53c20", "extent": {"geometry": {"decimalLongitude": 13.246586, "decimalLatitude": 55.0, "centre": [13.246586, 55.0, 6.0], "aream2": 0, "type": "Point", "coordinates": [13.246586, 55.0, 6.0], "areaKmSq": 0}, "source": "Point"}, "kartaTx": "01CNO", "projects": ["d0b2f329-c394-464b-b5ab-e1e205585a7c"], "transectParts": [{"geometry": {"decimalLongitude": 13.099579, "decimalLatitude": 55.377332, "type": "Point", "coordinates": [13.099579, 55.377332]}, "type": "none", "coords_3021": [1328502.0, 6141940.0], "name": "1 - Albäcksskogen", "description": ""}, {"geometry": {"decimalLongitude": 13.066549, "decimalLatitude": 55.374367, "type": "Point", "coordinates": [13.066549, 55.374367]}, "type": "none", "coords_3021": [1326396.0, 6141692.0], "name": "2 - Skåre", "description": ""}, {"geometry": {"decimalLongitude": 13.063658, "decimalLatitude": 55.412474, "type": "Point", "coordinates": [13.063658, 55.412474]}, "type": "none", "coords_3021": [1326380.0, 6145940.0], "name": "3 - Rängvägen", "description": ""}, {"geometry": {"decimalLongitude": 13.050084, "decimalLatitude": 55.438623, "type": "Point", "coordinates": [13.050084, 55.438623]}, "type": "none", "coords_3021": [1325636.0, 6148884.0], "name": "4 - Håslöv", "description": ""}, {"geometry": {"decimalLongitude": 13.100697, "decimalLatitude": 55.442503, "type": "Point", "coordinates": [13.100697, 55.442503]}, "type": "none", "coords_3021": [1328855.0, 6149190.0], "name": "5 - N Värplinge", "description": ""}, {"geometry": {"decimalLongitude": 13.135324, "decimalLatitude": 55.414277, "type": "Point", "coordinates": [13.135324, 55.414277]}, "type": "none", "coords_3021": [1330925.0, 6145964.0], "name": "6 - Odinsborg", "description": ""}, {"geometry": {"decimalLongitude": 13.201565, "decimalLatitude": 55.441944, "type": "Point", "coordinates": [13.201565, 55.441944]}, "type": "none", "coords_3021": [1335234.0, 6148884.0], "name": "7 - V Alstad", "description": ""}, {"geometry": {"decimalLongitude": 13.241313, "decimalLatitude": 55.443233, "type": "Point", "coordinates": [13.241313, 55.443233]}, "type": "none", "coords_3021": [1337754.0, 6148934.0], "name": "8 - Fru Alstad", "description": ""}, {"geometry": {"decimalLongitude": 13.237268, "decimalLatitude": 55.413047, "type": "Point", "coordinates": [13.237268, 55.413047]}, "type": "none", "coords_3021": [1337374.0, 6145584.0], "name": "9 - V Virestad", "description": ""}, {"geometry": {"decimalLongitude": 13.304595, "decimalLatitude": 55.425864, "type": "Point", "coordinates": [13.304595, 55.425864]}, "type": "none", "coords_3021": [1341688.0, 6146855.0], "name": "10 - Hagalund", "description": ""}, {"geometry": {"decimalLongitude": 13.366796, "decimalLatitude": 55.433311, "type": "Point", "coordinates": [13.366796, 55.433311]}, "type": "none", "coords_3021": [1345654.0, 6147544.0], "name": "11 - Vallåker", "description": ""}, {"geometry": {"decimalLongitude": 13.39574, "decimalLatitude": 55.412141, "type": "Point", "coordinates": [13.39574, 55.412141]}, "type": "none", "coords_3021": [1347404.0, 6145124.0], "name": "12 - Jordberga", "description": ""}, {"geometry": {"decimalLongitude": 13.421871, "decimalLatitude": 55.382105, "type": "Point", "coordinates": [13.421871, 55.382105]}, "type": "none", "coords_3021": [1348944.0, 6141724.0], "name": "13 - Annexdal", "description": ""}, {"geometry": {"decimalLongitude": 13.41466, "decimalLatitude": 55.353589, "type": "Point", "coordinates": [13.41466, 55.353589]}, "type": "none", "coords_3021": [1348378.0, 6138566.0], "name": "14 - Vipphög", "description": ""}, {"geometry": {"decimalLongitude": 13.424318, "decimalLatitude": 55.372377, "type": "Point", "coordinates": [13.424318, 55.372377]}, "type": "none", "coords_3021": [1349062.0, 6140636.0], "name": "15 - Hemmesdynge", "description": ""}, {"geometry": {"decimalLongitude": 13.360074, "decimalLatitude": 55.337575, "type": "Point", "coordinates": [13.360074, 55.337575]}, "type": "none", "coords_3021": [1344854.0, 6136904.0], "name": "16 - Smygehuk", "description": ""}, {"geometry": {"decimalLongitude": 13.313877, "decimalLatitude": 55.355016, "type": "Point", "coordinates": [13.313877, 55.355016]}, "type": "none", "coords_3021": [1341993.0, 6138949.0], "name": "17 - V Torp", "description": ""}, {"geometry": {"decimalLongitude": 13.262092, "decimalLatitude": 55.351208, "type": "Point", "coordinates": [13.262092, 55.351208]}, "type": "none", "coords_3021": [1338694.0, 6138644.0], "name": "18 - Gislöv", "description": ""}, {"geometry": {"decimalLongitude": 13.207737, "decimalLatitude": 55.368718, "type": "Point", "coordinates": [13.207737, 55.368718]}, "type": "none", "coords_3021": [1335320.0, 6140720.0], "name": "19 - Metso Min", "description": ""}, {"geometry": {"decimalLongitude": 13.160191, "decimalLatitude": 55.37618, "type": "Point", "coordinates": [13.160191, 55.37618]}, "type": "none", "coords_3021": [1332338.0, 6141664.0], "name": "20 - Trelleborg", "description": ""}], "name": "01CNO, Trelleborgsområdet", "area": "0", "commonName": "Trelleborgsområdet", "yearStarted": 2010, "type": ""}, {"status": "active", "description": "", "geoIndex": {"type": "Point", "coordinates": [13.232911, 56.0, 6.0]}, "siteId": "6231e8f9-c347-4249-853d-6d0a95c924cc", "extent": {"geometry": {"decimalLongitude": 13.232911, "decimalLatitude": 56.0, "centre": [13.232911, 56.0, 6.0], "aream2": 0, "type": "Point", "coordinates": [13.232911, 56.0, 6.0], "areaKmSq": 0}, "source": "Point"}, "kartaTx": "02CNO", "projects": ["d0b2f329-c394-464b-b5ab-e1e205585a7c"], "transectParts": [{"geometry": {"decimalLongitude": 13.296383, "decimalLatitude": 55.814997, "type": "Point", "coordinates": [13.296383, 55.814997]}, "type": "none", "coords_3021": [1342735.0, 6190183.0], "name": "1 - Ellinge", "description": ""}, {"geometry": {"decimalLongitude": 13.367214, "decimalLatitude": 55.802775, "type": "Point", "coordinates": [13.367214, 55.802775]}, "type": "none", "coords_3021": [1347126.0, 6188664.0], "name": "2 - Skarhults kyrka", "description": ""}, {"geometry": {"decimalLongitude": 13.371669, "decimalLatitude": 55.773052, "type": "Point", "coordinates": [13.371669, 55.773052]}, "type": "none", "coords_3021": [1347289.0, 6185346.0], "name": "3 - Roslövsholm", "description": ""}, {"geometry": {"decimalLongitude": 13.349165, "decimalLatitude": 55.752496, "type": "Point", "coordinates": [13.349165, 55.752496]}, "type": "none", "coords_3021": [1345796.0, 6183108.0], "name": "4 - Flyinge reningsverk", "description": ""}, {"geometry": {"decimalLongitude": 13.414439, "decimalLatitude": 55.714163, "type": "Point", "coordinates": [13.414439, 55.714163]}, "type": "none", "coords_3021": [1349746.0, 6178698.0], "name": "5 - Sandby mosse", "description": ""}, {"geometry": {"decimalLongitude": 13.367219, "decimalLatitude": 55.701383, "type": "Point", "coordinates": [13.367219, 55.701383]}, "type": "none", "coords_3021": [1346729.0, 6177379.0], "name": "6 - Måryd", "description": ""}, {"geometry": {"decimalLongitude": 13.390269, "decimalLatitude": 55.669997, "type": "Point", "coordinates": [13.390269, 55.669997]}, "type": "none", "coords_3021": [1348056.0, 6173835.0], "name": "7 - Torna hällestad", "description": ""}, {"geometry": {"decimalLongitude": 13.317776, "decimalLatitude": 55.690274, "type": "Point", "coordinates": [13.317776, 55.690274]}, "type": "none", "coords_3021": [1343577.0, 6176253.0], "name": "8 - Billebjär", "description": ""}, {"geometry": {"decimalLongitude": 13.292495, "decimalLatitude": 55.698051, "type": "Point", "coordinates": [13.292495, 55.698051]}, "type": "none", "coords_3021": [1342019.0, 6177176.0], "name": "9 - Hardeberga", "description": ""}, {"geometry": {"decimalLongitude": 13.157503, "decimalLatitude": 55.698052, "type": "Point", "coordinates": [13.157503, 55.698052]}, "type": "none", "coords_3021": [1333534.0, 6177492.0], "name": "10 - Lunds reningsverk", "description": ""}, {"geometry": {"decimalLongitude": 13.063054, "decimalLatitude": 55.693604, "type": "Point", "coordinates": [13.063054, 55.693604]}, "type": "none", "coords_3021": [1327578.0, 6177228.0], "name": "11 - Örestads golfklubb", "description": ""}, {"geometry": {"decimalLongitude": 13.055561, "decimalLatitude": 55.76444, "type": "Point", "coordinates": [13.055561, 55.76444]}, "type": "none", "coords_3021": [1327420.0, 6185130.0], "name": "12 - Hög", "description": ""}, {"geometry": {"decimalLongitude": 13.153879, "decimalLatitude": 55.773332, "type": "Point", "coordinates": [13.153879, 55.773332]}, "type": "none", "coords_3021": [1333627.0, 6185879.0], "name": "13 - Stångby mosse", "description": ""}, {"geometry": {"decimalLongitude": 13.067776, "decimalLatitude": 55.82, "type": "Point", "coordinates": [13.067776, 55.82]}, "type": "none", "coords_3021": [1328431.0, 6191283.0], "name": "14 - Dagstorp", "description": ""}, {"geometry": {"decimalLongitude": 13.101945, "decimalLatitude": 55.849437, "type": "Point", "coordinates": [13.101945, 55.849437]}, "type": "none", "coords_3021": [1330700.0, 6194475.0], "name": "15 - Gissleberga", "description": ""}, {"geometry": {"decimalLongitude": 13.229162, "decimalLatitude": 55.89305, "type": "Point", "coordinates": [13.229162, 55.89305]}, "type": "none", "coords_3021": [1338846.0, 6199025.0], "name": "16 - Strö ängar", "description": ""}, {"geometry": {"decimalLongitude": 13.289439, "decimalLatitude": 55.886661, "type": "Point", "coordinates": [13.289439, 55.886661]}, "type": "none", "coords_3021": [1342590.0, 6198175.0], "name": "17 - Selarp skogen", "description": ""}, {"geometry": {"decimalLongitude": 13.331662, "decimalLatitude": 55.886106, "type": "Point", "coordinates": [13.331662, 55.886106]}, "type": "none", "coords_3021": [1345229.0, 6198018.0], "name": "18 - Bosarps Jär", "description": ""}, {"geometry": {"decimalLongitude": 13.397498, "decimalLatitude": 55.895552, "type": "Point", "coordinates": [13.397498, 55.895552]}, "type": "none", "coords_3021": [1349384.0, 6198924.0], "name": "19 - Stehag", "description": ""}, {"geometry": {"decimalLongitude": 13.381661, "decimalLatitude": 55.853886, "type": "Point", "coordinates": [13.381661, 55.853886]}, "type": "none", "coords_3021": [1348231.0, 6194321.0], "name": "20 - Stavröd", "description": ""}], "name": "02CNO, Eslöv", "area": "0", "commonName": "Eslöv", "yearStarted": 2010, "type": ""}, {"status": "active", "description": "", "geoIndex": {"type": "Point", "coordinates": [12.956379, 56.0, 6.0]}, "siteId": "6f205fde-e8a4-41ee-8d7e-5f41924f9978", "extent": {"geometry": {"decimalLongitude": 12.956379, "decimalLatitude": 56.0, "centre": [12.956379, 56.0, 6.0], "aream2": 0, "type": "Point", "coordinates": [12.956379, 56.0, 6.0], "areaKmSq": 0}, "source": "Point"}, "kartaTx": "02CNV", "projects": ["d0b2f329-c394-464b-b5ab-e1e205585a7c"], "transectParts": [{"geometry": {"decimalLongitude": 13.001747, "decimalLatitude": 55.744147, "type": "Point", "coordinates": [13.001747, 55.744147]}, "type": "none", "coords_3021": [1323952.0, 6183007.0], "name": "1", "description": ""}, {"geometry": {"decimalLongitude": 12.974423, "decimalLatitude": 55.735208, "type": "Point", "coordinates": [12.974423, 55.735208]}, "type": "none", "coords_3021": [1322196.0, 6182082.0], "name": "2", "description": ""}, {"geometry": {"decimalLongitude": 12.96436, "decimalLatitude": 55.747223, "type": "Point", "coordinates": [12.96436, 55.747223]}, "type": "none", "coords_3021": [1321619.0, 6183445.0], "name": "3", "description": ""}, {"geometry": {"decimalLongitude": 12.962873, "decimalLatitude": 55.760865, "type": "Point", "coordinates": [12.962873, 55.760865]}, "type": "none", "coords_3021": [1321588.0, 6184967.0], "name": "4", "description": ""}, {"geometry": {"decimalLongitude": 12.935126, "decimalLatitude": 55.77173, "type": "Point", "coordinates": [12.935126, 55.77173]}, "type": "none", "coords_3021": [1319897.0, 6186248.0], "name": "5", "description": ""}, {"geometry": {"decimalLongitude": 12.941201, "decimalLatitude": 55.805577, "type": "Point", "coordinates": [12.941201, 55.805577]}, "type": "none", "coords_3021": [1320434.0, 6189999.0], "name": "6", "description": ""}, {"geometry": {"decimalLongitude": 12.931163, "decimalLatitude": 55.822703, "type": "Point", "coordinates": [12.931163, 55.822703]}, "type": "none", "coords_3021": [1319884.0, 6191931.0], "name": "7", "description": ""}, {"geometry": {"decimalLongitude": 12.955242, "decimalLatitude": 55.828898, "type": "Point", "coordinates": [12.955242, 55.828898]}, "type": "none", "coords_3021": [1321421.0, 6192558.0], "name": "8", "description": ""}, {"geometry": {"decimalLongitude": 12.960846, "decimalLatitude": 55.836109, "type": "Point", "coordinates": [12.960846, 55.836109]}, "type": "none", "coords_3021": [1321805.0, 6193346.0], "name": "9", "description": ""}, {"geometry": {"decimalLongitude": 12.936199, "decimalLatitude": 55.849661, "type": "Point", "coordinates": [12.936199, 55.849661]}, "type": "none", "coords_3021": [1320324.0, 6194918.0], "name": "10", "description": ""}, {"geometry": {"decimalLongitude": 12.936199, "decimalLatitude": 55.849661, "type": "Point", "coordinates": [12.936199, 55.849661]}, "type": "none", "coords_3021": [1320324.0, 6194918.0], "name": "11", "description": ""}, {"geometry": {"decimalLongitude": 12.894483, "decimalLatitude": 55.871576, "type": "Point", "coordinates": [12.894483, 55.871576]}, "type": "none", "coords_3021": [1317815.0, 6197466.0], "name": "12", "description": ""}, {"geometry": {"decimalLongitude": 12.927092, "decimalLatitude": 55.884016, "type": "Point", "coordinates": [12.927092, 55.884016]}, "type": "none", "coords_3021": [1319913.0, 6198765.0], "name": "13", "description": ""}, {"geometry": {"decimalLongitude": 12.970658, "decimalLatitude": 55.884651, "type": "Point", "coordinates": [12.970658, 55.884651]}, "type": "none", "coords_3021": [1322641.0, 6198723.0], "name": "14", "description": ""}, {"geometry": {"decimalLongitude": 12.987835, "decimalLatitude": 55.869348, "type": "Point", "coordinates": [12.987835, 55.869348]}, "type": "none", "coords_3021": [1323646.0, 6196976.0], "name": "15", "description": ""}, {"geometry": {"decimalLongitude": 12.975341, "decimalLatitude": 55.861621, "type": "Point", "coordinates": [12.975341, 55.861621]}, "type": "none", "coords_3021": [1322829.0, 6196148.0], "name": "16", "description": ""}, {"geometry": {"decimalLongitude": 12.962229, "decimalLatitude": 55.841217, "type": "Point", "coordinates": [12.962229, 55.841217]}, "type": "none", "coords_3021": [1321915.0, 6193911.0], "name": "17", "description": ""}, {"geometry": {"decimalLongitude": 12.966884, "decimalLatitude": 55.826005, "type": "Point", "coordinates": [12.966884, 55.826005]}, "type": "none", "coords_3021": [1322137.0, 6192206.0], "name": "18", "description": ""}, {"geometry": {"decimalLongitude": 12.981412, "decimalLatitude": 55.807487, "type": "Point", "coordinates": [12.981412, 55.807487]}, "type": "none", "coords_3021": [1322963.0, 6190108.0], "name": "19", "description": ""}, {"geometry": {"decimalLongitude": 12.976954, "decimalLatitude": 55.786466, "type": "Point", "coordinates": [12.976954, 55.786466]}, "type": "none", "coords_3021": [1322588.0, 6187780.0], "name": "20", "description": ""}], "name": "02CNV, Saxtorp", "area": "0", "commonName": "Saxtorp", "yearStarted": 2010, "type": ""}, {"status": "active", "description": "Ut ur Dalby på Norrevångsvägen, varefter väg 16 följs fram till avtagsvägen mot Bjällerup, och vidare till Kvärlöv.", "geoIndex": {"type": "Point", "coordinates": [13.251846, 56.0, 6.0]}, "siteId": "50e959b5-f52c-4bc0-8a58-0252c43292c1", "extent": {"geometry": {"decimalLongitude": 13.251846, "decimalLatitude": 56.0, "centre": [13.251846, 56.0, 6.0], "aream2": 0, "type": "Point", "coordinates": [13.251846, 56.0, 6.0], "areaKmSq": 0}, "source": "Point"}, "kartaTx": "02CSO", "projects": ["d0b2f329-c394-464b-b5ab-e1e205585a7c"], "transectParts": [{"geometry": {"decimalLongitude": 13.213634, "decimalLatitude": 55.655259, "type": "Point", "coordinates": [13.213634, 55.655259]}, "type": "none", "coords_3021": [1336884.0, 6172596.0], "name": "1", "description": ""}, {"geometry": {"decimalLongitude": 13.19175, "decimalLatitude": 55.638334, "type": "Point", "coordinates": [13.19175, 55.638334]}, "type": "none", "coords_3021": [1335436.0, 6170764.0], "name": "2", "description": "Från Gullåkra mosse längs Gullåkravägen och Västanväg till Domarringen i Staffanstorp."}, {"geometry": {"decimalLongitude": 13.130475, "decimalLatitude": 55.627451, "type": "Point", "coordinates": [13.130475, 55.627451]}, "type": "none", "coords_3021": [1331532.0, 6169700.0], "name": "3", "description": "Från Domarringen västerut till Tottarp, varifrån vägen följs söderut till Nordanå."}, {"geometry": {"decimalLongitude": 13.085914, "decimalLatitude": 55.576547, "type": "Point", "coordinates": [13.085914, 55.576547]}, "type": "none", "coords_3021": [1328504.0, 6164144.0], "name": "4", "description": "Från Nordanå via Yttre ringvägen, Sallerupsvägen, Kvarnbyvägen och Husievägen till Husie mosse."}, {"geometry": {"decimalLongitude": 13.130151, "decimalLatitude": 55.560449, "type": "Point", "coordinates": [13.130151, 55.560449]}, "type": "none", "coords_3021": [1331224.0, 6162244.0], "name": "5", "description": "Från Husie mosse österut till Östra Kattarp, varifrån vägen följs söderut till Almåsa."}, {"geometry": {"decimalLongitude": 13.161804, "decimalLatitude": 55.547119, "type": "Point", "coordinates": [13.161804, 55.547119]}, "type": "none", "coords_3021": [1333164.0, 6160684.0], "name": "6", "description": "Raka vägen mellan Almåsa och Skabersjö."}, {"geometry": {"decimalLongitude": 13.195176, "decimalLatitude": 55.533818, "type": "Point", "coordinates": [13.195176, 55.533818]}, "type": "none", "coords_3021": [1335214.0, 6159124.0], "name": "7", "description": "Raka vägen mellan Skabersjö och Tutaremossen."}, {"geometry": {"decimalLongitude": 13.207271, "decimalLatitude": 55.549799, "type": "Point", "coordinates": [13.207271, 55.549799]}, "type": "none", "coords_3021": [1336044.0, 6160874.0], "name": "8", "description": "Vägen norrut upp i Torups bokskog."}, {"geometry": {"decimalLongitude": 13.225871, "decimalLatitude": 55.599701, "type": "Point", "coordinates": [13.225871, 55.599701]}, "type": "none", "coords_3021": [1337424.0, 6166384.0], "name": "9", "description": "Vidare upp genom bokskogen fram till Bara, där Malmövägen tas fram till Klågerup, och sedan rakt till Vinninge."}, {"geometry": {"decimalLongitude": 13.216306, "decimalLatitude": 55.618656, "type": "Point", "coordinates": [13.216306, 55.618656]}, "type": "none", "coords_3021": [1336900.0, 6168516.0], "name": "10", "description": "Raka vägen från Vinninge till västra sidan av Torreberga."}, {"geometry": {"decimalLongitude": 13.294296, "decimalLatitude": 55.616649, "type": "Point", "coordinates": [13.294296, 55.616649]}, "type": "none", "coords_3021": [1341804.0, 6168112.0], "name": "11", "description": "Torreberga rundas, varefter E108:an nås och följs till vägen mot Mossheddinge."}, {"geometry": {"decimalLongitude": 13.331077, "decimalLatitude": 55.625519, "type": "Point", "coordinates": [13.331077, 55.625519]}, "type": "none", "coords_3021": [1344156.0, 6169016.0], "name": "12", "description": "Från Mossheddinge till Alberta mosse via Esarp."}, {"geometry": {"decimalLongitude": 13.364496, "decimalLatitude": 55.599846, "type": "Point", "coordinates": [13.364496, 55.599846]}, "type": "none", "coords_3021": [1346160.0, 6166084.0], "name": "13", "description": "Från Alberta mosse följs vägen mellan Esarp och Genarp till avtagsvägen mot Toppeladugård."}, {"geometry": {"decimalLongitude": 13.336507, "decimalLatitude": 55.581603, "type": "Point", "coordinates": [13.336507, 55.581603]}, "type": "none", "coords_3021": [1344324.0, 6164116.0], "name": "14", "description": "Raka vägen mellan Toppeladugård och Assartorp."}, {"geometry": {"decimalLongitude": 13.387804, "decimalLatitude": 55.582123, "type": "Point", "coordinates": [13.387804, 55.582123]}, "type": "none", "coords_3021": [1347560.0, 6164060.0], "name": "15", "description": "Raka vägen mellan Assartorp och södra Risen."}, {"geometry": {"decimalLongitude": 13.422903, "decimalLatitude": 55.583996, "type": "Point", "coordinates": [13.422903, 55.583996]}, "type": "none", "coords_3021": [1349780.0, 6164192.0], "name": "16", "description": "Raka vägen mellan södra Risen och Häckeberga."}, {"geometry": {"decimalLongitude": 13.407969, "decimalLatitude": 55.629096, "type": "Point", "coordinates": [13.407969, 55.629096]}, "type": "none", "coords_3021": [1349012.0, 6169244.0], "name": "17", "description": "Raka vägen norrut från Häckeberga till Björnstorp via Genarp."}, {"geometry": {"decimalLongitude": 13.376969, "decimalLatitude": 55.657848, "type": "Point", "coordinates": [13.376969, 55.657848]}, "type": "none", "coords_3021": [1347172.0, 6172512.0], "name": "18", "description": "Från Björnstorp följs vägen norrut upp till väg 11. Därifrån tas vägen via Knivsåsen till Dalby stenbrott."}, {"geometry": {"decimalLongitude": 13.358773, "decimalLatitude": 55.675384, "type": "Point", "coordinates": [13.358773, 55.675384]}, "type": "none", "coords_3021": [1346096.0, 6174504.0], "name": "19", "description": "Från Dalby stenbrott till Dalby, genom samhället på de större vägarna upp till norra Rökepipan."}, {"geometry": {"decimalLongitude": 13.246427, "decimalLatitude": 55.662201, "type": "Point", "coordinates": [13.246427, 55.662201]}, "type": "none", "coords_3021": [1338976.0, 6173292.0], "name": "20", "description": "Ut ur Dalby på Norrevångsvägen, varefter väg 16 följs fram till avtagsvägen mot Bjällerup, och vidare till Kvärlöv."}], "name": "02CSO, Staffanstorp", "area": "0", "commonName": "Staffanstorp", "yearStarted": 2010, "type": ""}, {"status": "active", "description": "", "geoIndex": {"type": "Point", "coordinates": [13.991181, 56.0, 6.0]}, "siteId": "3f20affd-2370-416f-8e6a-38b2903bd0ed", "extent": {"geometry": {"decimalLongitude": 13.991181, "decimalLatitude": 56.0, "centre": [13.991181, 56.0, 6.0], "aream2": 0, "type": "Point", "coordinates": [13.991181, 56.0, 6.0], "areaKmSq": 0}, "source": "Point"}, "kartaTx": "02DNO", "projects": ["d0b2f329-c394-464b-b5ab-e1e205585a7c"], "transectParts": [{"geometry": {"decimalLongitude": 13.841902, "decimalLatitude": 55.868357, "type": "Point", "coordinates": [13.841902, 55.868357]}, "type": "none", "coords_3021": [1377093.0, 6195018.0], "name": "1", "description": ""}, {"geometry": {"decimalLongitude": 13.90633, "decimalLatitude": 55.87174, "type": "Point", "coordinates": [13.90633, 55.87174]}, "type": "none", "coords_3021": [1381136.0, 6195282.0], "name": "2", "description": ""}, {"geometry": {"decimalLongitude": 13.911818, "decimalLatitude": 55.859123, "type": "Point", "coordinates": [13.911818, 55.859123]}, "type": "none", "coords_3021": [1381441.0, 6193868.0], "name": "3", "description": ""}, {"geometry": {"decimalLongitude": 13.990687, "decimalLatitude": 55.863294, "type": "Point", "coordinates": [13.990687, 55.863294]}, "type": "none", "coords_3021": [1386391.0, 6194200.0], "name": "4", "description": ""}, {"geometry": {"decimalLongitude": 14.029284, "decimalLatitude": 55.88769, "type": "Point", "coordinates": [14.029284, 55.88769]}, "type": "none", "coords_3021": [1388877.0, 6196853.0], "name": "5", "description": ""}, {"geometry": {"decimalLongitude": 14.059493, "decimalLatitude": 55.90086, "type": "Point", "coordinates": [14.059493, 55.90086]}, "type": "none", "coords_3021": [1390804.0, 6198271.0], "name": "6", "description": ""}, {"geometry": {"decimalLongitude": 14.167754, "decimalLatitude": 55.888371, "type": "Point", "coordinates": [14.167754, 55.888371]}, "type": "none", "coords_3021": [1397542.0, 6196715.0], "name": "7", "description": ""}, {"geometry": {"decimalLongitude": 14.175721, "decimalLatitude": 55.873736, "type": "Point", "coordinates": [14.175721, 55.873736]}, "type": "none", "coords_3021": [1398002.0, 6195074.0], "name": "8", "description": ""}, {"geometry": {"decimalLongitude": 14.135485, "decimalLatitude": 55.849248, "type": "Point", "coordinates": [14.135485, 55.849248]}, "type": "none", "coords_3021": [1395418.0, 6192408.0], "name": "9", "description": ""}, {"geometry": {"decimalLongitude": 14.138066, "decimalLatitude": 55.822181, "type": "Point", "coordinates": [14.138066, 55.822181]}, "type": "none", "coords_3021": [1395507.0, 6189391.0], "name": "10", "description": ""}, {"geometry": {"decimalLongitude": 14.152407, "decimalLatitude": 55.777514, "type": "Point", "coordinates": [14.152407, 55.777514]}, "type": "none", "coords_3021": [1396287.0, 6184397.0], "name": "11", "description": ""}, {"geometry": {"decimalLongitude": 14.132926, "decimalLatitude": 55.772399, "type": "Point", "coordinates": [14.132926, 55.772399]}, "type": "none", "coords_3021": [1395051.0, 6183857.0], "name": "12", "description": ""}, {"geometry": {"decimalLongitude": 14.081268, "decimalLatitude": 55.780156, "type": "Point", "coordinates": [14.081268, 55.780156]}, "type": "none", "coords_3021": [1391831.0, 6184800.0], "name": "13", "description": ""}, {"geometry": {"decimalLongitude": 14.022471, "decimalLatitude": 55.77726, "type": "Point", "coordinates": [14.022471, 55.77726]}, "type": "none", "coords_3021": [1388134.0, 6184571.0], "name": "14", "description": ""}, {"geometry": {"decimalLongitude": 13.988107, "decimalLatitude": 55.766641, "type": "Point", "coordinates": [13.988107, 55.766641]}, "type": "none", "coords_3021": [1385947.0, 6183445.0], "name": "15", "description": ""}, {"geometry": {"decimalLongitude": 13.926068, "decimalLatitude": 55.757506, "type": "Point", "coordinates": [13.926068, 55.757506]}, "type": "none", "coords_3021": [1382026.0, 6182532.0], "name": "16", "description": ""}, {"geometry": {"decimalLongitude": 13.896072, "decimalLatitude": 55.762999, "type": "Point", "coordinates": [13.896072, 55.762999]}, "type": "none", "coords_3021": [1380160.0, 6183195.0], "name": "17", "description": ""}, {"geometry": {"decimalLongitude": 13.850111, "decimalLatitude": 55.742494, "type": "Point", "coordinates": [13.850111, 55.742494]}, "type": "none", "coords_3021": [1377211.0, 6180993.0], "name": "18", "description": ""}, {"geometry": {"decimalLongitude": 13.849782, "decimalLatitude": 55.761157, "type": "Point", "coordinates": [13.849782, 55.761157]}, "type": "none", "coords_3021": [1377249.0, 6183071.0], "name": "19", "description": ""}, {"geometry": {"decimalLongitude": 13.810905, "decimalLatitude": 55.795478, "type": "Point", "coordinates": [13.810905, 55.795478]}, "type": "none", "coords_3021": [1374919.0, 6186961.0], "name": "20", "description": ""}], "name": "02DNO, Hörröd", "area": "0", "commonName": "Hörröd", "yearStarted": 2010, "type": ""}, {"status": "active", "description": "", "geoIndex": {"type": "Point", "coordinates": [13.560773, 56.0, 6.0]}, "siteId": "892b3845-7e51-467e-913e-3d7edfa9bc6d", "extent": {"geometry": {"decimalLongitude": 13.560773, "decimalLatitude": 56.0, "centre": [13.560773, 56.0, 6.0], "aream2": 0, "type": "Point", "coordinates": [13.560773, 56.0, 6.0], "areaKmSq": 0}, "source": "Point"}, "kartaTx": "02DNV", "projects": ["d0b2f329-c394-464b-b5ab-e1e205585a7c"], "transectParts": [{"geometry": {"decimalLongitude": 13.429973, "decimalLatitude": 55.901565, "type": "Point", "coordinates": [13.429973, 55.901565]}, "type": "none", "coords_3021": [1351438.0, 6199523.0], "name": "1 - Ringsjöholm", "description": ""}, {"geometry": {"decimalLongitude": 13.445193, "decimalLatitude": 55.866622, "type": "Point", "coordinates": [13.445193, 55.866622]}, "type": "none", "coords_3021": [1352257.0, 6195601.0], "name": "2 - S Munkarp", "description": ""}, {"geometry": {"decimalLongitude": 13.510264, "decimalLatitude": 55.840991, "type": "Point", "coordinates": [13.510264, 55.840991]}, "type": "none", "coords_3021": [1356235.0, 6192611.0], "name": "3 - Snogerödsdammen", "description": ""}, {"geometry": {"decimalLongitude": 13.45904, "decimalLatitude": 55.835469, "type": "Point", "coordinates": [13.45904, 55.835469]}, "type": "none", "coords_3021": [1353006.0, 6192104.0], "name": "4 - Bråån V Rolsberga", "description": ""}, {"geometry": {"decimalLongitude": 13.449346, "decimalLatitude": 55.804647, "type": "Point", "coordinates": [13.449346, 55.804647]}, "type": "none", "coords_3021": [1352282.0, 6188694.0], "name": "5 - Löberöds gård", "description": ""}, {"geometry": {"decimalLongitude": 13.49342, "decimalLatitude": 55.794721, "type": "Point", "coordinates": [13.49342, 55.794721]}, "type": "none", "coords_3021": [1355008.0, 6187496.0], "name": "6 - Bolleröd", "description": ""}, {"geometry": {"decimalLongitude": 13.488451, "decimalLatitude": 55.773945, "type": "Point", "coordinates": [13.488451, 55.773945]}, "type": "none", "coords_3021": [1354619.0, 6185194.0], "name": "7 - Hjularöds våtmark", "description": ""}, {"geometry": {"decimalLongitude": 13.532048, "decimalLatitude": 55.764572, "type": "Point", "coordinates": [13.532048, 55.764572]}, "type": "none", "coords_3021": [1357320.0, 6184060.0], "name": "8 - Brunnslöv", "description": ""}, {"geometry": {"decimalLongitude": 13.579706, "decimalLatitude": 55.75655, "type": "Point", "coordinates": [13.579706, 55.75655]}, "type": "none", "coords_3021": [1360282.0, 6183070.0], "name": "9 - Norre mosse", "description": ""}, {"geometry": {"decimalLongitude": 13.590383, "decimalLatitude": 55.739925, "type": "Point", "coordinates": [13.590383, 55.739925]}, "type": "none", "coords_3021": [1360893.0, 6181198.0], "name": "10 - Vedåkra", "description": ""}, {"geometry": {"decimalLongitude": 13.643289, "decimalLatitude": 55.749942, "type": "Point", "coordinates": [13.643289, 55.749942]}, "type": "none", "coords_3021": [1364250.0, 6182208.0], "name": "11 - Lyby mosse", "description": ""}, {"geometry": {"decimalLongitude": 13.638272, "decimalLatitude": 55.777201, "type": "Point", "coordinates": [13.638272, 55.777201]}, "type": "none", "coords_3021": [1364030.0, 6185252.0], "name": "12 - Råby", "description": ""}, {"geometry": {"decimalLongitude": 13.611867, "decimalLatitude": 55.786992, "type": "Point", "coordinates": [13.611867, 55.786992]}, "type": "none", "coords_3021": [1362408.0, 6186394.0], "name": "13 - Almarkaröd", "description": ""}, {"geometry": {"decimalLongitude": 13.636899, "decimalLatitude": 55.823399, "type": "Point", "coordinates": [13.636899, 55.823399]}, "type": "none", "coords_3021": [1364105.0, 6190397.0], "name": "14 - Bessinge", "description": ""}, {"geometry": {"decimalLongitude": 13.678072, "decimalLatitude": 55.833929, "type": "Point", "coordinates": [13.678072, 55.833929]}, "type": "none", "coords_3021": [1366721.0, 6191489.0], "name": "15 - Satserups mosse", "description": ""}, {"geometry": {"decimalLongitude": 13.70806, "decimalLatitude": 55.856589, "type": "Point", "coordinates": [13.70806, 55.856589]}, "type": "none", "coords_3021": [1368676.0, 6193954.0], "name": "16 - Kyle mosse", "description": ""}, {"geometry": {"decimalLongitude": 13.682178, "decimalLatitude": 55.870753, "type": "Point", "coordinates": [13.682178, 55.870753]}, "type": "none", "coords_3021": [1367104.0, 6195580.0], "name": "17 - Ekeröd", "description": ""}, {"geometry": {"decimalLongitude": 13.657958, "decimalLatitude": 55.877645, "type": "Point", "coordinates": [13.657958, 55.877645]}, "type": "none", "coords_3021": [1365612.0, 6196394.0], "name": "18 - Mjälaströ", "description": ""}, {"geometry": {"decimalLongitude": 13.608438, "decimalLatitude": 55.879241, "type": "Point", "coordinates": [13.608438, 55.879241]}, "type": "none", "coords_3021": [1362519.0, 6196669.0], "name": "19 - Fulltofta", "description": ""}, {"geometry": {"decimalLongitude": 13.613909, "decimalLatitude": 55.891332, "type": "Point", "coordinates": [13.613909, 55.891332]}, "type": "none", "coords_3021": [1362904.0, 6198004.0], "name": "20 - Häggenäs fälader", "description": ""}], "name": "02DNV, Hörby", "area": "0", "commonName": "Hörby", "yearStarted": 2012, "type": ""}, {"status": "active", "description": "", "geoIndex": {"type": "Point", "coordinates": [14.12825, 56.0, 6.0]}, "siteId": "a2287ba8-feaa-456a-8f75-5d911b20c7b4", "extent": {"geometry": {"decimalLongitude": 14.12825, "decimalLatitude": 56.0, "centre": [14.12825, 56.0, 6.0], "aream2": 0, "type": "Point", "coordinates": [14.12825, 56.0, 6.0], "areaKmSq": 0}, "source": "Point"}, "kartaTx": "02DSO", "projects": ["d0b2f329-c394-464b-b5ab-e1e205585a7c"], "transectParts": [{"geometry": {"decimalLongitude": 14.237546, "decimalLatitude": 55.678767, "type": "Point", "coordinates": [14.237546, 55.678767]}, "type": "none", "coords_3021": [1401380.0, 6173280.0], "name": "1", "description": ""}, {"geometry": {"decimalLongitude": 14.166224, "decimalLatitude": 55.673523, "type": "Point", "coordinates": [14.166224, 55.673523]}, "type": "none", "coords_3021": [1396880.0, 6172800.0], "name": "2", "description": ""}, {"geometry": {"decimalLongitude": 14.110846, "decimalLatitude": 55.663877, "type": "Point", "coordinates": [14.110846, 55.663877]}, "type": "none", "coords_3021": [1393370.0, 6171810.0], "name": "3", "description": ""}, {"geometry": {"decimalLongitude": 14.090115, "decimalLatitude": 55.647329, "type": "Point", "coordinates": [14.090115, 55.647329]}, "type": "none", "coords_3021": [1392020.0, 6170000.0], "name": "4", "description": ""}, {"geometry": {"decimalLongitude": 14.132752, "decimalLatitude": 55.63094, "type": "Point", "coordinates": [14.132752, 55.63094]}, "type": "none", "coords_3021": [1394660.0, 6168110.0], "name": "5", "description": ""}, {"geometry": {"decimalLongitude": 14.124126, "decimalLatitude": 55.595068, "type": "Point", "coordinates": [14.124126, 55.595068]}, "type": "none", "coords_3021": [1394020.0, 6164130.0], "name": "6", "description": ""}, {"geometry": {"decimalLongitude": 14.087661, "decimalLatitude": 55.56914, "type": "Point", "coordinates": [14.087661, 55.56914]}, "type": "none", "coords_3021": [1391650.0, 6161300.0], "name": "7", "description": ""}, {"geometry": {"decimalLongitude": 13.854011, "decimalLatitude": 55.574624, "type": "Point", "coordinates": [13.854011, 55.574624]}, "type": "none", "coords_3021": [1376930.0, 6162300.0], "name": "8", "description": ""}, {"geometry": {"decimalLongitude": 13.861962, "decimalLatitude": 55.549793, "type": "Point", "coordinates": [13.861962, 55.549793]}, "type": "none", "coords_3021": [1377354.0, 6159522.0], "name": "9", "description": ""}, {"geometry": {"decimalLongitude": 13.8517, "decimalLatitude": 55.52602, "type": "Point", "coordinates": [13.8517, 55.52602]}, "type": "none", "coords_3021": [1376632.0, 6156894.0], "name": "10", "description": ""}, {"geometry": {"decimalLongitude": 13.890656, "decimalLatitude": 55.523492, "type": "Point", "coordinates": [13.890656, 55.523492]}, "type": "none", "coords_3021": [1379084.0, 6156544.0], "name": "11", "description": ""}, {"geometry": {"decimalLongitude": 13.922262, "decimalLatitude": 55.510973, "type": "Point", "coordinates": [13.922262, 55.510973]}, "type": "none", "coords_3021": [1381042.0, 6155096.0], "name": "12", "description": ""}, {"geometry": {"decimalLongitude": 13.949635, "decimalLatitude": 55.490441, "type": "Point", "coordinates": [13.949635, 55.490441]}, "type": "none", "coords_3021": [1382710.0, 6152764.0], "name": "13", "description": ""}, {"geometry": {"decimalLongitude": 13.991031, "decimalLatitude": 55.47455, "type": "Point", "coordinates": [13.991031, 55.47455]}, "type": "none", "coords_3021": [1385280.0, 6150926.0], "name": "14", "description": ""}, {"geometry": {"decimalLongitude": 14.223639, "decimalLatitude": 55.470934, "type": "Point", "coordinates": [14.223639, 55.470934]}, "type": "none", "coords_3021": [1399978.0, 6150164.0], "name": "15", "description": ""}, {"geometry": {"decimalLongitude": 14.273983, "decimalLatitude": 55.497248, "type": "Point", "coordinates": [14.273983, 55.497248]}, "type": "none", "coords_3021": [1403226.0, 6153022.0], "name": "16", "description": ""}, {"geometry": {"decimalLongitude": 14.324552, "decimalLatitude": 55.501625, "type": "Point", "coordinates": [14.324552, 55.501625]}, "type": "none", "coords_3021": [1406432.0, 6153440.0], "name": "17", "description": ""}, {"geometry": {"decimalLongitude": 14.326616, "decimalLatitude": 55.582426, "type": "Point", "coordinates": [14.326616, 55.582426]}, "type": "none", "coords_3021": [1406754.0, 6162432.0], "name": "18", "description": ""}, {"geometry": {"decimalLongitude": 14.289306, "decimalLatitude": 55.585994, "type": "Point", "coordinates": [14.289306, 55.585994]}, "type": "none", "coords_3021": [1404410.0, 6162880.0], "name": "19", "description": ""}, {"geometry": {"decimalLongitude": 14.277267, "decimalLatitude": 55.599481, "type": "Point", "coordinates": [14.277267, 55.599481]}, "type": "none", "coords_3021": [1403684.0, 6164398.0], "name": "20", "description": ""}], "name": "02DSO, Österlen-Fyledalen", "area": "0", "commonName": "Österlen-Fyledalen", "yearStarted": 2010, "type": ""}, {"status": "active", "description": "", "geoIndex": {"type": "Point", "coordinates": [13.57296, 56.0, 6.0]}, "siteId": "3ab1f504-e521-4c67-a04b-828f132ff419", "extent": {"geometry": {"decimalLongitude": 13.57296, "decimalLatitude": 56.0, "centre": [13.57296, 56.0, 6.0], "aream2": 0, "type": "Point", "coordinates": [13.57296, 56.0, 6.0], "areaKmSq": 0}, "source": "Point"}, "kartaTx": "02DSV", "projects": ["d0b2f329-c394-464b-b5ab-e1e205585a7c"], "transectParts": [{"geometry": {"decimalLongitude": 13.440297, "decimalLatitude": 55.685536, "type": "Point", "coordinates": [13.440297, 55.685536]}, "type": "none", "coords_3021": [1351262.0, 6175456.0], "name": "1", "description": ""}, {"geometry": {"decimalLongitude": 13.461989, "decimalLatitude": 55.689007, "type": "Point", "coordinates": [13.461989, 55.689007]}, "type": "none", "coords_3021": [1352639.0, 6175796.0], "name": "2", "description": ""}, {"geometry": {"decimalLongitude": 13.492795, "decimalLatitude": 55.690104, "type": "Point", "coordinates": [13.492795, 55.690104]}, "type": "none", "coords_3021": [1354580.0, 6175853.0], "name": "3", "description": ""}, {"geometry": {"decimalLongitude": 13.509086, "decimalLatitude": 55.676197, "type": "Point", "coordinates": [13.509086, 55.676197]}, "type": "none", "coords_3021": [1355553.0, 6174271.0], "name": "4", "description": ""}, {"geometry": {"decimalLongitude": 13.494114, "decimalLatitude": 55.650786, "type": "Point", "coordinates": [13.494114, 55.650786]}, "type": "none", "coords_3021": [1354517.0, 6171474.0], "name": "5", "description": ""}, {"geometry": {"decimalLongitude": 13.576619, "decimalLatitude": 55.604777, "type": "Point", "coordinates": [13.576619, 55.604777]}, "type": "none", "coords_3021": [1359545.0, 6166183.0], "name": "6", "description": ""}, {"geometry": {"decimalLongitude": 13.624749, "decimalLatitude": 55.621698, "type": "Point", "coordinates": [13.624749, 55.621698]}, "type": "none", "coords_3021": [1362637.0, 6167970.0], "name": "7", "description": ""}, {"geometry": {"decimalLongitude": 13.644814, "decimalLatitude": 55.617723, "type": "Point", "coordinates": [13.644814, 55.617723]}, "type": "none", "coords_3021": [1363887.0, 6167488.0], "name": "8", "description": ""}, {"geometry": {"decimalLongitude": 13.682821, "decimalLatitude": 55.598604, "type": "Point", "coordinates": [13.682821, 55.598604]}, "type": "none", "coords_3021": [1366216.0, 6165286.0], "name": "9", "description": ""}, {"geometry": {"decimalLongitude": 13.719851, "decimalLatitude": 55.587021, "type": "Point", "coordinates": [13.719851, 55.587021]}, "type": "none", "coords_3021": [1368511.0, 6163926.0], "name": "10", "description": ""}, {"geometry": {"decimalLongitude": 13.736263, "decimalLatitude": 55.597389, "type": "Point", "coordinates": [13.736263, 55.597389]}, "type": "none", "coords_3021": [1369580.0, 6165049.0], "name": "11", "description": ""}, {"geometry": {"decimalLongitude": 13.785927, "decimalLatitude": 55.584697, "type": "Point", "coordinates": [13.785927, 55.584697]}, "type": "none", "coords_3021": [1372669.0, 6163544.0], "name": "12", "description": ""}, {"geometry": {"decimalLongitude": 13.60038, "decimalLatitude": 55.651054, "type": "Point", "coordinates": [13.60038, 55.651054]}, "type": "none", "coords_3021": [1361206.0, 6171286.0], "name": "13", "description": ""}, {"geometry": {"decimalLongitude": 13.544071, "decimalLatitude": 55.645249, "type": "Point", "coordinates": [13.544071, 55.645249]}, "type": "none", "coords_3021": [1357641.0, 6170754.0], "name": "14", "description": ""}, {"geometry": {"decimalLongitude": 13.554967, "decimalLatitude": 55.662717, "type": "Point", "coordinates": [13.554967, 55.662717]}, "type": "none", "coords_3021": [1358390.0, 6172676.0], "name": "15", "description": ""}, {"geometry": {"decimalLongitude": 13.553015, "decimalLatitude": 55.692527, "type": "Point", "coordinates": [13.553015, 55.692527]}, "type": "none", "coords_3021": [1358375.0, 6175998.0], "name": "16", "description": ""}, {"geometry": {"decimalLongitude": 13.51577, "decimalLatitude": 55.710354, "type": "Point", "coordinates": [13.51577, 55.710354]}, "type": "none", "coords_3021": [1356099.0, 6178059.0], "name": "17", "description": ""}, {"geometry": {"decimalLongitude": 13.489248, "decimalLatitude": 55.705427, "type": "Point", "coordinates": [13.489248, 55.705427]}, "type": "none", "coords_3021": [1354414.0, 6177566.0], "name": "18", "description": ""}, {"geometry": {"decimalLongitude": 13.454551, "decimalLatitude": 55.706915, "type": "Point", "coordinates": [13.454551, 55.706915]}, "type": "none", "coords_3021": [1352239.0, 6177805.0], "name": "19", "description": ""}, {"geometry": {"decimalLongitude": 13.426659, "decimalLatitude": 55.699288, "type": "Point", "coordinates": [13.426659, 55.699288]}, "type": "none", "coords_3021": [1350457.0, 6177016.0], "name": "20", "description": ""}], "name": "02DSV, Hällestad-Sjöbo", "area": "0", "commonName": "Hällestad-Sjöbo", "yearStarted": 2012, "type": ""}, {"status": "active", "description": "", "geoIndex": {"type": "Point", "coordinates": [12.865369, 56.0, 6.0]}, "siteId": "f78cbed4-56ae-46cc-83c6-00ecb429650c", "extent": {"geometry": {"decimalLongitude": 12.865369, "decimalLatitude": 56.0, "centre": [12.865369, 56.0, 6.0], "aream2": 0, "type": "Point", "coordinates": [12.865369, 56.0, 6.0], "areaKmSq": 0}, "source": "Point"}, "kartaTx": "03CNV", "projects": ["d0b2f329-c394-464b-b5ab-e1e205585a7c"], "transectParts": [{"geometry": {"decimalLongitude": 12.95875, "decimalLatitude": 56.103414, "type": "Point", "coordinates": [12.95875, 56.103414]}, "type": "none", "coords_3021": [1322900.0, 6223100.0], "name": "1 - Gunnarstorp", "description": "liten väg mot söder väster jvg. Mellan två lövholmar "}, {"geometry": {"decimalLongitude": 12.976208, "decimalLatitude": 56.106512, "type": "Point", "coordinates": [12.976208, 56.106512]}, "type": "none", "coords_3021": [1324000.0, 6223400.0], "name": "2 - Vrams Gunnarst", "description": "efter hus p-ficka vänster sida"}, {"geometry": {"decimalLongitude": 12.977616, "decimalLatitude": 56.109239, "type": "Point", "coordinates": [12.977616, 56.109239]}, "type": "none", "coords_3021": [1324100.0, 6223700.0], "name": "3 - Vrams Gunnarst", "description": "Hästhagsvägen, högersida, hygge vänster"}, {"geometry": {"decimalLongitude": 12.993145, "decimalLatitude": 56.116782, "type": "Point", "coordinates": [12.993145, 56.116782]}, "type": "none", "coords_3021": [1325100.0, 6224500.0], "name": "4", "description": "Maglabyvägen mot Kärrebergastugby, P-plats höger sida"}, {"geometry": {"decimalLongitude": 12.992621, "decimalLatitude": 56.123959, "type": "Point", "coordinates": [12.992621, 56.123959]}, "type": "none", "coords_3021": [1325100.0, 6225300.0], "name": "5", "description": "Innan det öppnar sig mot slätten i norr, ca 300m in till vänster"}, {"geometry": {"decimalLongitude": 13.024014, "decimalLatitude": 56.157017, "type": "Point", "coordinates": [13.024014, 56.157017]}, "type": "none", "coords_3021": [1327200.0, 6228900.0], "name": "6 - Sånna mader", "description": "EfterTommarp under kraftledningsgata"}, {"geometry": {"decimalLongitude": 12.99574, "decimalLatitude": 56.191419, "type": "Point", "coordinates": [12.99574, 56.191419]}, "type": "none", "coords_3021": [1325600.0, 6232800.0], "name": "7 - Hjämshult", "description": "mellan Hjälmshult o Starby vid väg in till vänster"}, {"geometry": {"decimalLongitude": 12.984967, "decimalLatitude": 56.206448, "type": "Point", "coordinates": [12.984967, 56.206448]}, "type": "none", "coords_3021": [1325000.0, 6234500.0], "name": "8 - Ugglarps broar", "description": ""}, {"geometry": {"decimalLongitude": 12.904546, "decimalLatitude": 56.225342, "type": "Point", "coordinates": [12.904546, 56.225342]}, "type": "none", "coords_3021": [1320100.0, 6236810.0], "name": "9 - Höja/Skörpinge", "description": "vägen mot Ausås vid våtmarken"}, {"geometry": {"decimalLongitude": 12.830424, "decimalLatitude": 56.224389, "type": "Point", "coordinates": [12.830424, 56.224389]}, "type": "none", "coords_3021": [1315500.0, 6236900.0], "name": "10 - Gräsmatteodlingen", "description": "utmed vägen centrala delarna"}, {"geometry": {"decimalLongitude": 12.940109, "decimalLatitude": 56.224285, "type": "Point", "coordinates": [12.940109, 56.224285]}, "type": "none", "coords_3021": [1322300.0, 6236600.0], "name": "11 - Sandön", "description": "vid bryggan"}, {"geometry": {"decimalLongitude": 12.694105, "decimalLatitude": 56.214742, "type": "Point", "coordinates": [12.694105, 56.214742]}, "type": "none", "coords_3021": [1307000.0, 6236200.0], "name": "12 - Görslövsån/Farhult", "description": "fältet utmed ån mot havet"}, {"geometry": {"decimalLongitude": 12.635452, "decimalLatitude": 56.202467, "type": "Point", "coordinates": [12.635452, 56.202467]}, "type": "none", "coords_3021": [1303300.0, 6235000.0], "name": "13 - Ornakärr", "description": "efter bäcken mot fälten"}, {"geometry": {"decimalLongitude": 12.691533, "decimalLatitude": 56.18682, "type": "Point", "coordinates": [12.691533, 56.18682]}, "type": "none", "coords_3021": [1306700.0, 6233100.0], "name": "14 - Mjöhult", "description": "korsningen mot vindkraftverket"}, {"geometry": {"decimalLongitude": 12.729886, "decimalLatitude": 56.170708, "type": "Point", "coordinates": [12.729886, 56.170708]}, "type": "none", "coords_3021": [1309000.0, 6231200.0], "name": "15 - Höghult", "description": "3-vägskorsningen"}, {"geometry": {"decimalLongitude": 12.711823, "decimalLatitude": 56.15498, "type": "Point", "coordinates": [12.711823, 56.15498]}, "type": "none", "coords_3021": [1307800.0, 6229500.0], "name": "16 - Svedberga, ladan", "description": ""}, {"geometry": {"decimalLongitude": 12.741104, "decimalLatitude": 56.151217, "type": "Point", "coordinates": [12.741104, 56.151217]}, "type": "none", "coords_3021": [1309600.0, 6229000.0], "name": "17 - Västrabygård", "description": "dungen väster gården"}, {"geometry": {"decimalLongitude": 12.772461, "decimalLatitude": 56.161876, "type": "Point", "coordinates": [12.772461, 56.161876]}, "type": "none", "coords_3021": [1311600.0, 6230100.0], "name": "18 - Efter Västarbygård", "description": "90-graderskurvan innan jvg"}, {"geometry": {"decimalLongitude": 12.769508, "decimalLatitude": 56.178877, "type": "Point", "coordinates": [12.769508, 56.178877]}, "type": "none", "coords_3021": [1311500.0, 6232000.0], "name": "19 - Vägen mot Östarby ", "description": "från Rögle mot Östraby innan jvg på Västarbyvägen"}, {"geometry": {"decimalLongitude": 12.813617, "decimalLatitude": 56.129633, "type": "Point", "coordinates": [12.813617, 56.129633]}, "type": "none", "coords_3021": [1314000.0, 6226400.0], "name": "20 - Hasslarps dammar", "description": ""}], "name": "03CNV, Ängelholm", "area": "0", "commonName": "Ängelholm", "yearStarted": 2010, "type": ""}, {"status": "active", "description": "", "geoIndex": {"type": "Point", "coordinates": [13.214361, 56.0, 6.0]}, "siteId": "cf0816ef-5add-4f49-a9c6-ee1760d0fc18", "extent": {"geometry": {"decimalLongitude": 13.214361, "decimalLatitude": 56.0, "centre": [13.214361, 56.0, 6.0], "aream2": 0, "type": "Point", "coordinates": [13.214361, 56.0, 6.0], "areaKmSq": 0}, "source": "Point"}, "kartaTx": "03CSO", "projects": ["d0b2f329-c394-464b-b5ab-e1e205585a7c"], "transectParts": [{"geometry": {"decimalLongitude": 13.25066, "decimalLatitude": 56.122112, "type": "Point", "coordinates": [13.25066, 56.122112]}, "type": "none", "coords_3021": [1341134.0, 6224470.0], "name": "1 - Sorröd", "description": ""}, {"geometry": {"decimalLongitude": 13.260229, "decimalLatitude": 56.092185, "type": "Point", "coordinates": [13.260229, 56.092185]}, "type": "none", "coords_3021": [1341606.0, 6221117.0], "name": "2 - Marocko", "description": ""}, {"geometry": {"decimalLongitude": 13.222803, "decimalLatitude": 56.090913, "type": "Point", "coordinates": [13.222803, 56.090913]}, "type": "none", "coords_3021": [1339272.0, 6221062.0], "name": "3 - Venlösa äng", "description": ""}, {"geometry": {"decimalLongitude": 13.33986, "decimalLatitude": 56.102786, "type": "Point", "coordinates": [13.33986, 56.102786]}, "type": "none", "coords_3021": [1346603.0, 6222117.0], "name": "4 - Storaryd", "description": ""}, {"geometry": {"decimalLongitude": 13.312379, "decimalLatitude": 56.08228, "type": "Point", "coordinates": [13.312379, 56.08228]}, "type": "none", "coords_3021": [1344811.0, 6219896.0], "name": "5 - Intill infart Räfshalen", "description": ""}, {"geometry": {"decimalLongitude": 13.322984, "decimalLatitude": 56.035829, "type": "Point", "coordinates": [13.322984, 56.035829]}, "type": "none", "coords_3021": [1345285.0, 6214702.0], "name": "6 - Ljungsgård", "description": ""}, {"geometry": {"decimalLongitude": 13.375507, "decimalLatitude": 56.046569, "type": "Point", "coordinates": [13.375507, 56.046569]}, "type": "none", "coords_3021": [1348600.0, 6215781.0], "name": "7 - Färingtofta Kyrka", "description": ""}, {"geometry": {"decimalLongitude": 13.384978, "decimalLatitude": 56.017359, "type": "Point", "coordinates": [13.384978, 56.017359]}, "type": "none", "coords_3021": [1349076.0, 6212509.0], "name": "8 - Djupadalsmölla", "description": ""}, {"geometry": {"decimalLongitude": 13.353171, "decimalLatitude": 55.968269, "type": "Point", "coordinates": [13.353171, 55.968269]}, "type": "none", "coords_3021": [1346899.0, 6207115.0], "name": "9 - Bron Brostugan Billinge", "description": ""}, {"geometry": {"decimalLongitude": 13.376082, "decimalLatitude": 55.949065, "type": "Point", "coordinates": [13.376082, 55.949065]}, "type": "none", "coords_3021": [1348254.0, 6204927.0], "name": "10 - Stockamöllan", "description": ""}, {"geometry": {"decimalLongitude": 13.311598, "decimalLatitude": 55.921253, "type": "Point", "coordinates": [13.311598, 55.921253]}, "type": "none", "coords_3021": [1344115.0, 6201975.0], "name": "11 - Haghus", "description": ""}, {"geometry": {"decimalLongitude": 13.215481, "decimalLatitude": 55.914308, "type": "Point", "coordinates": [13.215481, 55.914308]}, "type": "none", "coords_3021": [1338079.0, 6201423.0], "name": "12 - Infart Rönnebacka", "description": ""}, {"geometry": {"decimalLongitude": 13.152772, "decimalLatitude": 55.949811, "type": "Point", "coordinates": [13.152772, 55.949811]}, "type": "none", "coords_3021": [1334311.0, 6205523.0], "name": "13 - Tarstad Kraftledning", "description": ""}, {"geometry": {"decimalLongitude": 13.138759, "decimalLatitude": 55.981953, "type": "Point", "coordinates": [13.138759, 55.981953]}, "type": "none", "coords_3021": [1333574.0, 6209134.0], "name": "14 - Före Lundahus", "description": ""}, {"geometry": {"decimalLongitude": 13.002615, "decimalLatitude": 56.000935, "type": "Point", "coordinates": [13.002615, 56.000935]}, "type": "none", "coords_3021": [1325165.0, 6211583.0], "name": "15 - Före Bögerup Hunseröd", "description": ""}, {"geometry": {"decimalLongitude": 13.159986, "decimalLatitude": 56.03482, "type": "Point", "coordinates": [13.159986, 56.03482]}, "type": "none", "coords_3021": [1335124.0, 6214967.0], "name": "16 - Infart Klåverödsgården", "description": ""}, {"geometry": {"decimalLongitude": 13.064133, "decimalLatitude": 56.038601, "type": "Point", "coordinates": [13.064133, 56.038601]}, "type": "none", "coords_3021": [1329168.0, 6215621.0], "name": "17 - Före Bauseröd", "description": ""}, {"geometry": {"decimalLongitude": 13.029662, "decimalLatitude": 56.064211, "type": "Point", "coordinates": [13.029662, 56.064211]}, "type": "none", "coords_3021": [1327135.0, 6218557.0], "name": "18 - Båv (bäck)", "description": ""}, {"geometry": {"decimalLongitude": 13.072503, "decimalLatitude": 56.113327, "type": "Point", "coordinates": [13.072503, 56.113327]}, "type": "none", "coords_3021": [1330019.0, 6223917.0], "name": "19 - Gustaget Kvidinge", "description": ""}, {"geometry": {"decimalLongitude": 13.128997, "decimalLatitude": 56.119795, "type": "Point", "coordinates": [13.128997, 56.119795]}, "type": "none", "coords_3021": [1333560.0, 6224499.0], "name": "20 - Stackarpdammen", "description": ""}], "name": "03CSO, Klippan", "area": "0", "commonName": "Klippan", "yearStarted": 2011, "type": ""}, {"status": "active", "description": "", "geoIndex": {"type": "Point", "coordinates": [14.002184, 56.0, 6.0]}, "siteId": "906f2f1d-73be-481b-9f9d-7a8ab97505d3", "extent": {"geometry": {"decimalLongitude": 14.002184, "decimalLatitude": 56.0, "centre": [14.002184, 56.0, 6.0], "aream2": 0, "type": "Point", "coordinates": [14.002184, 56.0, 6.0], "areaKmSq": 0}, "source": "Point"}, "kartaTx": "03DSO", "projects": ["d0b2f329-c394-464b-b5ab-e1e205585a7c"], "transectParts": [{"geometry": {"decimalLongitude": 13.93967, "decimalLatitude": 55.932097, "type": "Point", "coordinates": [13.93967, 55.932097]}, "type": "none", "coords_3021": [1383404.0, 6201944.0], "name": "1 - Ljungen. V Vram", "description": ""}, {"geometry": {"decimalLongitude": 13.864246, "decimalLatitude": 55.968301, "type": "Point", "coordinates": [13.864246, 55.968301]}, "type": "none", "coords_3021": [1378804.0, 6206104.0], "name": "2 - Forshult", "description": ""}, {"geometry": {"decimalLongitude": 13.852981, "decimalLatitude": 55.997948, "type": "Point", "coordinates": [13.852981, 55.997948]}, "type": "none", "coords_3021": [1378194.0, 6209424.0], "name": "3 - Öllestorp", "description": ""}, {"geometry": {"decimalLongitude": 13.839452, "decimalLatitude": 56.040223, "type": "Point", "coordinates": [13.839452, 56.040223]}, "type": "none", "coords_3021": [1377484.0, 6214154.0], "name": "4 - Ekholma/Vinnö Mosse", "description": ""}, {"geometry": {"decimalLongitude": 13.891285, "decimalLatitude": 56.046698, "type": "Point", "coordinates": [13.891285, 56.046698]}, "type": "none", "coords_3021": [1380734.0, 6214784.0], "name": "5 - Ö Ejaröd / Svarte mosse", "description": ""}, {"geometry": {"decimalLongitude": 13.94438, "decimalLatitude": 56.087306, "type": "Point", "coordinates": [13.94438, 56.087306]}, "type": "none", "coords_3021": [1384164.0, 6219214.0], "name": "6 - Åraslövs mosse, p-platsen", "description": ""}, {"geometry": {"decimalLongitude": 13.990785, "decimalLatitude": 56.09132, "type": "Point", "coordinates": [13.990785, 56.09132]}, "type": "none", "coords_3021": [1387064.0, 6219584.0], "name": "7 - Fridhemsgården", "description": ""}, {"geometry": {"decimalLongitude": 14.033542, "decimalLatitude": 56.10847, "type": "Point", "coordinates": [14.033542, 56.10847]}, "type": "none", "coords_3021": [1389774.0, 6221424.0], "name": "8 - N Ströö, kyrkan", "description": ""}, {"geometry": {"decimalLongitude": 14.106566, "decimalLatitude": 56.078327, "type": "Point", "coordinates": [14.106566, 56.078327]}, "type": "none", "coords_3021": [1394234.0, 6217954.0], "name": "9 - Åby ängar, p-platsen", "description": ""}, {"geometry": {"decimalLongitude": 14.083199, "decimalLatitude": 56.04403, "type": "Point", "coordinates": [14.083199, 56.04403]}, "type": "none", "coords_3021": [1392684.0, 6214172.0], "name": "10 - Vinnö ängar", "description": ""}, {"geometry": {"decimalLongitude": 13.99355, "decimalLatitude": 56.02902, "type": "Point", "coordinates": [13.99355, 56.02902]}, "type": "none", "coords_3021": [1387054.0, 6212644.0], "name": "11 - Bockeboda, Utfartsvägen", "description": ""}, {"geometry": {"decimalLongitude": 14.040291, "decimalLatitude": 56.013708, "type": "Point", "coordinates": [14.040291, 56.013708]}, "type": "none", "coords_3021": [1389924.0, 6210864.0], "name": "12 - Uddarp, p-plats motionsspåren", "description": ""}, {"geometry": {"decimalLongitude": 14.007811, "decimalLatitude": 55.998327, "type": "Point", "coordinates": [14.007811, 55.998327]}, "type": "none", "coords_3021": [1387854.0, 6209204.0], "name": "13 - Ovesholm, slottet/dammen", "description": ""}, {"geometry": {"decimalLongitude": 14.130098, "decimalLatitude": 55.976516, "type": "Point", "coordinates": [14.130098, 55.976516]}, "type": "none", "coords_3021": [1395424.0, 6206584.0], "name": "14 - N Åsum övningsfältet", "description": ""}, {"geometry": {"decimalLongitude": 14.162247, "decimalLatitude": 55.996621, "type": "Point", "coordinates": [14.162247, 55.996621]}, "type": "none", "coords_3021": [1397484.0, 6208774.0], "name": "15 - Åsums ängar/Fågeltornet", "description": ""}, {"geometry": {"decimalLongitude": 14.197495, "decimalLatitude": 55.962233, "type": "Point", "coordinates": [14.197495, 55.962233]}, "type": "none", "coords_3021": [1399594.0, 6204894.0], "name": "16 - Hovby ängar/G:a Bränneriet", "description": ""}, {"geometry": {"decimalLongitude": 14.188764, "decimalLatitude": 55.929691, "type": "Point", "coordinates": [14.188764, 55.929691]}, "type": "none", "coords_3021": [1398964.0, 6201284.0], "name": "17 - Lunden", "description": ""}, {"geometry": {"decimalLongitude": 14.114469, "decimalLatitude": 55.930849, "type": "Point", "coordinates": [14.114469, 55.930849]}, "type": "none", "coords_3021": [1394324.0, 6201524.0], "name": "18 - Gringelstad, korsningen Gringelstadsv. och Böklins väg", "description": ""}, {"geometry": {"decimalLongitude": 14.068242, "decimalLatitude": 55.930475, "type": "Point", "coordinates": [14.068242, 55.930475]}, "type": "none", "coords_3021": [1391434.0, 6201554.0], "name": "19 - Lyngsjön", "description": ""}, {"geometry": {"decimalLongitude": 14.020991, "decimalLatitude": 55.928002, "type": "Point", "coordinates": [14.020991, 55.928002]}, "type": "none", "coords_3021": [1388474.0, 6201354.0], "name": "20 - Hommentorp, bron Vramsån ", "description": ""}], "name": "03DSO, Tollarp/Rickarum/N Ströö/Kristianstad", "area": "0", "commonName": "Tollarp/Rickarum/N Ströö/Kristianstad", "yearStarted": 2010, "type": ""}, {"status": "active", "description": "", "geoIndex": {"type": "Point", "coordinates": [13.594573, 56.0, 6.0]}, "siteId": "ce7ddd86-9e1e-4f4a-8eee-ec85c439b2ea", "extent": {"geometry": {"decimalLongitude": 13.594573, "decimalLatitude": 56.0, "centre": [13.594573, 56.0, 6.0], "aream2": 0, "type": "Point", "coordinates": [13.594573, 56.0, 6.0], "areaKmSq": 0}, "source": "Point"}, "kartaTx": "03DSV", "projects": ["d0b2f329-c394-464b-b5ab-e1e205585a7c"], "transectParts": [{"geometry": {"decimalLongitude": 13.677567, "decimalLatitude": 55.992294, "type": "Point", "coordinates": [13.677567, 55.992294]}, "type": "none", "coords_3021": [1367232.0, 6209118.0], "name": "1", "description": ""}, {"geometry": {"decimalLongitude": 13.666787, "decimalLatitude": 55.971571, "type": "Point", "coordinates": [13.666787, 55.971571]}, "type": "none", "coords_3021": [1366488.0, 6206832.0], "name": "2", "description": ""}, {"geometry": {"decimalLongitude": 13.638457, "decimalLatitude": 55.985719, "type": "Point", "coordinates": [13.638457, 55.985719]}, "type": "none", "coords_3021": [1364769.0, 6208462.0], "name": "3", "description": ""}, {"geometry": {"decimalLongitude": 13.649974, "decimalLatitude": 56.006548, "type": "Point", "coordinates": [13.649974, 56.006548]}, "type": "none", "coords_3021": [1365560.0, 6210758.0], "name": "4", "description": ""}, {"geometry": {"decimalLongitude": 13.65762, "decimalLatitude": 56.034028, "type": "Point", "coordinates": [13.65762, 56.034028]}, "type": "none", "coords_3021": [1366132.0, 6213802.0], "name": "5", "description": ""}, {"geometry": {"decimalLongitude": 13.672218, "decimalLatitude": 56.039312, "type": "Point", "coordinates": [13.672218, 56.039312]}, "type": "none", "coords_3021": [1367060.0, 6214362.0], "name": "6", "description": ""}, {"geometry": {"decimalLongitude": 13.69767, "decimalLatitude": 56.049308, "type": "Point", "coordinates": [13.69767, 56.049308]}, "type": "none", "coords_3021": [1368680.0, 6215426.0], "name": "7", "description": ""}, {"geometry": {"decimalLongitude": 13.702542, "decimalLatitude": 56.068023, "type": "Point", "coordinates": [13.702542, 56.068023]}, "type": "none", "coords_3021": [1369047.0, 6217500.0], "name": "8", "description": ""}, {"geometry": {"decimalLongitude": 13.702911, "decimalLatitude": 56.08632, "type": "Point", "coordinates": [13.702911, 56.08632]}, "type": "none", "coords_3021": [1369132.0, 6219536.0], "name": "9", "description": ""}, {"geometry": {"decimalLongitude": 13.714715, "decimalLatitude": 56.102421, "type": "Point", "coordinates": [13.714715, 56.102421]}, "type": "none", "coords_3021": [1369921.0, 6221306.0], "name": "10", "description": ""}, {"geometry": {"decimalLongitude": 13.688081, "decimalLatitude": 56.112361, "type": "Point", "coordinates": [13.688081, 56.112361]}, "type": "none", "coords_3021": [1368298.0, 6222463.0], "name": "11", "description": ""}, {"geometry": {"decimalLongitude": 13.651338, "decimalLatitude": 56.105814, "type": "Point", "coordinates": [13.651338, 56.105814]}, "type": "none", "coords_3021": [1365990.0, 6221805.0], "name": "12", "description": ""}, {"geometry": {"decimalLongitude": 13.627518, "decimalLatitude": 56.113131, "type": "Point", "coordinates": [13.627518, 56.113131]}, "type": "none", "coords_3021": [1364534.0, 6222666.0], "name": "13", "description": ""}, {"geometry": {"decimalLongitude": 13.591965, "decimalLatitude": 56.093866, "type": "Point", "coordinates": [13.591965, 56.093866]}, "type": "none", "coords_3021": [1362254.0, 6220592.0], "name": "14", "description": ""}, {"geometry": {"decimalLongitude": 13.560543, "decimalLatitude": 56.099174, "type": "Point", "coordinates": [13.560543, 56.099174]}, "type": "none", "coords_3021": [1360318.0, 6221246.0], "name": "15", "description": ""}, {"geometry": {"decimalLongitude": 13.533314, "decimalLatitude": 56.103005, "type": "Point", "coordinates": [13.533314, 56.103005]}, "type": "none", "coords_3021": [1358638.0, 6221728.0], "name": "16", "description": ""}, {"geometry": {"decimalLongitude": 13.50235, "decimalLatitude": 56.119474, "type": "Point", "coordinates": [13.50235, 56.119474]}, "type": "none", "coords_3021": [1356773.0, 6223625.0], "name": "17", "description": ""}, {"geometry": {"decimalLongitude": 13.48118, "decimalLatitude": 56.111575, "type": "Point", "coordinates": [13.48118, 56.111575]}, "type": "none", "coords_3021": [1355427.0, 6222790.0], "name": "18", "description": ""}, {"geometry": {"decimalLongitude": 13.474149, "decimalLatitude": 56.087725, "type": "Point", "coordinates": [13.474149, 56.087725]}, "type": "none", "coords_3021": [1354900.0, 6220150.0], "name": "19", "description": ""}, {"geometry": {"decimalLongitude": 13.458995, "decimalLatitude": 56.074806, "type": "Point", "coordinates": [13.458995, 56.074806]}, "type": "none", "coords_3021": [1353908.0, 6218744.0], "name": "20", "description": ""}], "name": "03DSV, Höör", "area": "0", "commonName": "Höör", "yearStarted": 2013, "type": ""}, {"status": "active", "description": "", "geoIndex": {"type": "Point", "coordinates": [15.185973, 56.0, 6.0]}, "siteId": "09363de1-da88-442a-91b4-9bc00858e09c", "extent": {"geometry": {"decimalLongitude": 15.185973, "decimalLatitude": 56.0, "centre": [15.185973, 56.0, 6.0], "aream2": 0, "type": "Point", "coordinates": [15.185973, 56.0, 6.0], "areaKmSq": 0}, "source": "Point"}, "kartaTx": "03FNV", "projects": ["d0b2f329-c394-464b-b5ab-e1e205585a7c"], "transectParts": [{"geometry": {"decimalLongitude": 15.1923, "decimalLatitude": 56.244101, "type": "Point", "coordinates": [15.1923, 56.244101]}, "type": "none", "coords_3021": [1461998.0, 6235279.0], "name": "1 - Uggl-BH-6", "description": ""}, {"geometry": {"decimalLongitude": 15.16667, "decimalLatitude": 56.2364, "type": "Point", "coordinates": [15.16667, 56.2364]}, "type": "none", "coords_3021": [1460401.0, 6234436.0], "name": "2 - Uggl-BH-5", "description": ""}, {"geometry": {"decimalLongitude": 15.194541, "decimalLatitude": 56.223967, "type": "Point", "coordinates": [15.194541, 56.223967]}, "type": "none", "coords_3021": [1462117.0, 6233036.0], "name": "3 - Hf.tax-Son-Näs-16", "description": ""}, {"geometry": {"decimalLongitude": 15.136173, "decimalLatitude": 56.204185, "type": "Point", "coordinates": [15.136173, 56.204185]}, "type": "none", "coords_3021": [1458475.0, 6230867.0], "name": "4 - Hakarp-nattskärrelok", "description": ""}, {"geometry": {"decimalLongitude": 15.111726, "decimalLatitude": 56.196326, "type": "Point", "coordinates": [15.111726, 56.196326]}, "type": "none", "coords_3021": [1456949.0, 6230007.0], "name": "5 - Uggl-BH-21", "description": ""}, {"geometry": {"decimalLongitude": 15.148587, "decimalLatitude": 56.1727, "type": "Point", "coordinates": [15.148587, 56.1727]}, "type": "none", "coords_3021": [1459212.0, 6227354.0], "name": "6 - Vieryd", "description": ""}, {"geometry": {"decimalLongitude": 15.114693, "decimalLatitude": 56.180994, "type": "Point", "coordinates": [15.114693, 56.180994]}, "type": "none", "coords_3021": [1457116.0, 6228298.0], "name": "7 - Hf.tax-Son-Näs-3", "description": ""}, {"geometry": {"decimalLongitude": 15.109097, "decimalLatitude": 56.16899, "type": "Point", "coordinates": [15.109097, 56.16899]}, "type": "none", "coords_3021": [1456755.0, 6226965.0], "name": "8 - Hf.tax-Son-Näs-1", "description": ""}, {"geometry": {"decimalLongitude": 15.080209, "decimalLatitude": 56.189885, "type": "Point", "coordinates": [15.080209, 56.189885]}, "type": "none", "coords_3021": [1454985.0, 6229310.0], "name": "9 - Järnaviks våtmark", "description": ""}, {"geometry": {"decimalLongitude": 15.038155, "decimalLatitude": 56.193017, "type": "Point", "coordinates": [15.038155, 56.193017]}, "type": "none", "coords_3021": [1452378.0, 6229687.0], "name": "10 - Köpegårda", "description": ""}, {"geometry": {"decimalLongitude": 14.983775, "decimalLatitude": 56.171875, "type": "Point", "coordinates": [14.983775, 56.171875]}, "type": "none", "coords_3021": [1448974.0, 6227372.0], "name": "11 - Eriksbergs stränder", "description": ""}, {"geometry": {"decimalLongitude": 14.949421, "decimalLatitude": 56.185473, "type": "Point", "coordinates": [14.949421, 56.185473]}, "type": "none", "coords_3021": [1446859.0, 6228912.0], "name": "12 - Siggarp V utfarten", "description": ""}, {"geometry": {"decimalLongitude": 14.908156, "decimalLatitude": 56.198024, "type": "Point", "coordinates": [14.908156, 56.198024]}, "type": "none", "coords_3021": [1444315.0, 6230342.0], "name": "13 - mot Granefors-vaktellokalen", "description": ""}, {"geometry": {"decimalLongitude": 14.94877, "decimalLatitude": 56.214649, "type": "Point", "coordinates": [14.94877, 56.214649]}, "type": "none", "coords_3021": [1446859.0, 6232161.0], "name": "14 - Källaby", "description": ""}, {"geometry": {"decimalLongitude": 14.970483, "decimalLatitude": 56.232303, "type": "Point", "coordinates": [14.970483, 56.232303]}, "type": "none", "coords_3021": [1448230.0, 6234110.0], "name": "15 - Björkenäs-Öllesjöarna", "description": ""}, {"geometry": {"decimalLongitude": 14.959605, "decimalLatitude": 56.258328, "type": "Point", "coordinates": [14.959605, 56.258328]}, "type": "none", "coords_3021": [1447591.0, 6237016.0], "name": "16 - Långehall-Hemsjön", "description": ""}, {"geometry": {"decimalLongitude": 14.933967, "decimalLatitude": 56.293716, "type": "Point", "coordinates": [14.933967, 56.293716]}, "type": "none", "coords_3021": [1446052.0, 6240976.0], "name": "17 - Metaremåla", "description": ""}, {"geometry": {"decimalLongitude": 14.915802, "decimalLatitude": 56.286591, "type": "Point", "coordinates": [14.915802, 56.286591]}, "type": "none", "coords_3021": [1444917.0, 6240197.0], "name": "18 - Björnamåla-Sågdammen", "description": ""}, {"geometry": {"decimalLongitude": 14.86286, "decimalLatitude": 56.231179, "type": "Point", "coordinates": [14.86286, 56.231179]}, "type": "none", "coords_3021": [1441554.0, 6234071.0], "name": "19 - Nötebråne", "description": ""}, {"geometry": {"decimalLongitude": 14.862725, "decimalLatitude": 56.213089, "type": "Point", "coordinates": [14.862725, 56.213089]}, "type": "none", "coords_3021": [1441518.0, 6232057.0], "name": "20 - Ö om Froarp", "description": ""}], "name": "03FNV, Nässjön-Froarp", "area": "0", "commonName": "Nässjön-Froarp", "yearStarted": 2011, "type": ""}, {"status": "active", "description": "", "geoIndex": {"type": "Point", "coordinates": [12.818565, 57.0, 6.0]}, "siteId": "621962fc-85c7-49eb-869d-659a57aec093", "extent": {"geometry": {"decimalLongitude": 12.818565, "decimalLatitude": 57.0, "centre": [12.818565, 57.0, 6.0], "aream2": 0, "type": "Point", "coordinates": [12.818565, 57.0, 6.0], "areaKmSq": 0}, "source": "Point"}, "kartaTx": "04CNV", "projects": ["d0b2f329-c394-464b-b5ab-e1e205585a7c"], "transectParts": [{"geometry": {"decimalLongitude": 12.926623, "decimalLatitude": 56.675273, "type": "Point", "coordinates": [12.926623, 56.675273]}, "type": "none", "coords_3021": [1323568.0, 6286828.0], "name": "1", "description": ""}, {"geometry": {"decimalLongitude": 12.910268, "decimalLatitude": 56.640409, "type": "Point", "coordinates": [12.910268, 56.640409]}, "type": "none", "coords_3021": [1322402.0, 6282990.0], "name": "2", "description": ""}, {"geometry": {"decimalLongitude": 12.927735, "decimalLatitude": 56.636305, "type": "Point", "coordinates": [12.927735, 56.636305]}, "type": "none", "coords_3021": [1323454.0, 6282488.0], "name": "3", "description": ""}, {"geometry": {"decimalLongitude": 12.856395, "decimalLatitude": 56.646637, "type": "Point", "coordinates": [12.856395, 56.646637]}, "type": "none", "coords_3021": [1319128.0, 6283824.0], "name": "4", "description": ""}, {"geometry": {"decimalLongitude": 12.771279, "decimalLatitude": 56.676829, "type": "Point", "coordinates": [12.771279, 56.676829]}, "type": "none", "coords_3021": [1314058.0, 6287412.0], "name": "5", "description": ""}, {"geometry": {"decimalLongitude": 12.797657, "decimalLatitude": 56.696464, "type": "Point", "coordinates": [12.797657, 56.696464]}, "type": "none", "coords_3021": [1315770.0, 6289526.0], "name": "6", "description": ""}, {"geometry": {"decimalLongitude": 12.821178, "decimalLatitude": 56.709591, "type": "Point", "coordinates": [12.821178, 56.709591]}, "type": "none", "coords_3021": [1317274.0, 6290924.0], "name": "7", "description": ""}, {"geometry": {"decimalLongitude": 12.785411, "decimalLatitude": 56.721686, "type": "Point", "coordinates": [12.785411, 56.721686]}, "type": "none", "coords_3021": [1315144.0, 6292366.0], "name": "8", "description": ""}, {"geometry": {"decimalLongitude": 12.699832, "decimalLatitude": 56.713093, "type": "Point", "coordinates": [12.699832, 56.713093]}, "type": "none", "coords_3021": [1309864.0, 6291644.0], "name": "9", "description": ""}, {"geometry": {"decimalLongitude": 12.690742, "decimalLatitude": 56.736066, "type": "Point", "coordinates": [12.690742, 56.736066]}, "type": "none", "coords_3021": [1309424.0, 6294226.0], "name": "10", "description": ""}, {"geometry": {"decimalLongitude": 12.661129, "decimalLatitude": 56.757444, "type": "Point", "coordinates": [12.661129, 56.757444]}, "type": "none", "coords_3021": [1307722.0, 6296688.0], "name": "11", "description": ""}, {"geometry": {"decimalLongitude": 12.681148, "decimalLatitude": 56.773224, "type": "Point", "coordinates": [12.681148, 56.773224]}, "type": "none", "coords_3021": [1309026.0, 6298388.0], "name": "12", "description": ""}, {"geometry": {"decimalLongitude": 12.764406, "decimalLatitude": 56.742182, "type": "Point", "coordinates": [12.764406, 56.742182]}, "type": "none", "coords_3021": [1313960.0, 6294704.0], "name": "13", "description": ""}, {"geometry": {"decimalLongitude": 12.777464, "decimalLatitude": 56.772511, "type": "Point", "coordinates": [12.777464, 56.772511]}, "type": "none", "coords_3021": [1314908.0, 6298044.0], "name": "14", "description": ""}, {"geometry": {"decimalLongitude": 12.846817, "decimalLatitude": 56.772901, "type": "Point", "coordinates": [12.846817, 56.772901]}, "type": "none", "coords_3021": [1319148.0, 6297902.0], "name": "15", "description": ""}, {"geometry": {"decimalLongitude": 12.881834, "decimalLatitude": 56.751894, "type": "Point", "coordinates": [12.881834, 56.751894]}, "type": "none", "coords_3021": [1321188.0, 6295472.0], "name": "16", "description": ""}, {"geometry": {"decimalLongitude": 12.844966, "decimalLatitude": 56.736575, "type": "Point", "coordinates": [12.844966, 56.736575]}, "type": "none", "coords_3021": [1318860.0, 6293864.0], "name": "17", "description": ""}, {"geometry": {"decimalLongitude": 12.85055, "decimalLatitude": 56.714192, "type": "Point", "coordinates": [12.85055, 56.714192]}, "type": "none", "coords_3021": [1319094.0, 6291358.0], "name": "18", "description": ""}, {"geometry": {"decimalLongitude": 12.870544, "decimalLatitude": 56.715509, "type": "Point", "coordinates": [12.870544, 56.715509]}, "type": "none", "coords_3021": [1320324.0, 6291452.0], "name": "19", "description": ""}, {"geometry": {"decimalLongitude": 12.92793, "decimalLatitude": 56.713309, "type": "Point", "coordinates": [12.92793, 56.713309]}, "type": "none", "coords_3021": [1323826.0, 6291058.0], "name": "20", "description": ""}], "name": "04CNV, Halmstad", "area": "0", "commonName": "Halmstad", "yearStarted": 2013, "type": ""}, {"status": "active", "description": "", "geoIndex": {"type": "Point", "coordinates": [12.782127, 56.0, 6.0]}, "siteId": "e1fee152-17df-42c1-bfde-42c65ad09d07", "extent": {"geometry": {"decimalLongitude": 12.782127, "decimalLatitude": 56.0, "centre": [12.782127, 56.0, 6.0], "aream2": 0, "type": "Point", "coordinates": [12.782127, 56.0, 6.0], "areaKmSq": 0}, "source": "Point"}, "kartaTx": "04CSV", "projects": ["d0b2f329-c394-464b-b5ab-e1e205585a7c"], "transectParts": [{"geometry": {"decimalLongitude": 12.872463, "decimalLatitude": 56.429505, "type": "Point", "coordinates": [12.872463, 56.429505]}, "type": "none", "coords_3021": [1319080.0, 6259616.0], "name": "1", "description": ""}, {"geometry": {"decimalLongitude": 12.932896, "decimalLatitude": 56.440067, "type": "Point", "coordinates": [12.932896, 56.440067]}, "type": "none", "coords_3021": [1322856.0, 6260634.0], "name": "2", "description": ""}, {"geometry": {"decimalLongitude": 12.920018, "decimalLatitude": 56.416532, "type": "Point", "coordinates": [12.920018, 56.416532]}, "type": "none", "coords_3021": [1321952.0, 6258048.0], "name": "3", "description": ""}, {"geometry": {"decimalLongitude": 12.896155, "decimalLatitude": 56.401275, "type": "Point", "coordinates": [12.896155, 56.401275]}, "type": "none", "coords_3021": [1320408.0, 6256412.0], "name": "4", "description": ""}, {"geometry": {"decimalLongitude": 12.911222, "decimalLatitude": 56.378697, "type": "Point", "coordinates": [12.911222, 56.378697]}, "type": "none", "coords_3021": [1321232.0, 6253860.0], "name": "5", "description": ""}, {"geometry": {"decimalLongitude": 12.881264, "decimalLatitude": 56.382486, "type": "Point", "coordinates": [12.881264, 56.382486]}, "type": "none", "coords_3021": [1319400.0, 6254360.0], "name": "6", "description": ""}, {"geometry": {"decimalLongitude": 12.833393, "decimalLatitude": 56.395724, "type": "Point", "coordinates": [12.833393, 56.395724]}, "type": "none", "coords_3021": [1316508.0, 6255960.0], "name": "7", "description": ""}, {"geometry": {"decimalLongitude": 12.838808, "decimalLatitude": 56.376948, "type": "Point", "coordinates": [12.838808, 56.376948]}, "type": "none", "coords_3021": [1316752.0, 6253856.0], "name": "8", "description": ""}, {"geometry": {"decimalLongitude": 12.785435, "decimalLatitude": 56.394097, "type": "Point", "coordinates": [12.785435, 56.394097]}, "type": "none", "coords_3021": [1313540.0, 6255908.0], "name": "9", "description": ""}, {"geometry": {"decimalLongitude": 12.728609, "decimalLatitude": 56.409232, "type": "Point", "coordinates": [12.728609, 56.409232]}, "type": "none", "coords_3021": [1310108.0, 6257748.0], "name": "10", "description": ""}, {"geometry": {"decimalLongitude": 12.676594, "decimalLatitude": 56.386579, "type": "Point", "coordinates": [12.676594, 56.386579]}, "type": "none", "coords_3021": [1306784.0, 6255372.0], "name": "11", "description": ""}, {"geometry": {"decimalLongitude": 12.666891, "decimalLatitude": 56.409985, "type": "Point", "coordinates": [12.666891, 56.409985]}, "type": "none", "coords_3021": [1306304.0, 6258004.0], "name": "12", "description": ""}, {"geometry": {"decimalLongitude": 12.640103, "decimalLatitude": 56.435075, "type": "Point", "coordinates": [12.640103, 56.435075]}, "type": "none", "coords_3021": [1304780.0, 6260872.0], "name": "13", "description": ""}, {"geometry": {"decimalLongitude": 12.692692, "decimalLatitude": 56.432237, "type": "Point", "coordinates": [12.692692, 56.432237]}, "type": "none", "coords_3021": [1308008.0, 6260408.0], "name": "14", "description": ""}, {"geometry": {"decimalLongitude": 12.684225, "decimalLatitude": 56.453986, "type": "Point", "coordinates": [12.684225, 56.453986]}, "type": "none", "coords_3021": [1307596.0, 6262852.0], "name": "15", "description": ""}, {"geometry": {"decimalLongitude": 12.70897, "decimalLatitude": 56.468157, "type": "Point", "coordinates": [12.70897, 56.468157]}, "type": "none", "coords_3021": [1309192.0, 6264360.0], "name": "16", "description": ""}, {"geometry": {"decimalLongitude": 12.752866, "decimalLatitude": 56.460871, "type": "Point", "coordinates": [12.752866, 56.460871]}, "type": "none", "coords_3021": [1311860.0, 6263428.0], "name": "17", "description": ""}, {"geometry": {"decimalLongitude": 12.76888, "decimalLatitude": 56.447516, "type": "Point", "coordinates": [12.76888, 56.447516]}, "type": "none", "coords_3021": [1312781.0, 6261898.0], "name": "18", "description": ""}, {"geometry": {"decimalLongitude": 12.829551, "decimalLatitude": 56.433712, "type": "Point", "coordinates": [12.829551, 56.433712]}, "type": "none", "coords_3021": [1316454.0, 6260198.0], "name": "19", "description": ""}, {"geometry": {"decimalLongitude": 12.847954, "decimalLatitude": 56.414564, "type": "Point", "coordinates": [12.847954, 56.414564]}, "type": "none", "coords_3021": [1317497.0, 6258018.0], "name": "20", "description": ""}], "name": "04CSV, Bjärerundan", "area": "0", "commonName": "Bjärerundan", "yearStarted": 2012, "type": ""}, {"status": "active", "description": "", "geoIndex": {"type": "Point", "coordinates": [14.774373, 56.0, 6.0]}, "siteId": "83c0888e-f255-4c11-ae72-386580e3ef6d", "extent": {"geometry": {"decimalLongitude": 14.774373, "decimalLatitude": 56.0, "centre": [14.774373, 56.0, 6.0], "aream2": 0, "type": "Point", "coordinates": [14.774373, 56.0, 6.0], "areaKmSq": 0}, "source": "Point"}, "kartaTx": "04ESO", "projects": ["d0b2f329-c394-464b-b5ab-e1e205585a7c"], "transectParts": [{"geometry": {"decimalLongitude": 14.869187, "decimalLatitude": 56.580316, "type": "Point", "coordinates": [14.869187, 56.580316]}, "type": "none", "coords_3021": [1442476.0, 6272940.0], "name": "1", "description": ""}, {"geometry": {"decimalLongitude": 14.849371, "decimalLatitude": 56.565975, "type": "Point", "coordinates": [14.849371, 56.565975]}, "type": "none", "coords_3021": [1441236.0, 6271360.0], "name": "2", "description": ""}, {"geometry": {"decimalLongitude": 14.812133, "decimalLatitude": 56.574161, "type": "Point", "coordinates": [14.812133, 56.574161]}, "type": "none", "coords_3021": [1438960.0, 6272304.0], "name": "3", "description": ""}, {"geometry": {"decimalLongitude": 14.783864, "decimalLatitude": 56.582266, "type": "Point", "coordinates": [14.783864, 56.582266]}, "type": "none", "coords_3021": [1437236.0, 6273232.0], "name": "4", "description": ""}, {"geometry": {"decimalLongitude": 14.80282, "decimalLatitude": 56.554723, "type": "Point", "coordinates": [14.80282, 56.554723]}, "type": "none", "coords_3021": [1438356.0, 6270148.0], "name": "5", "description": ""}, {"geometry": {"decimalLongitude": 14.798409, "decimalLatitude": 56.529792, "type": "Point", "coordinates": [14.798409, 56.529792]}, "type": "none", "coords_3021": [1438044.0, 6267376.0], "name": "6", "description": ""}, {"geometry": {"decimalLongitude": 14.76109, "decimalLatitude": 56.541806, "type": "Point", "coordinates": [14.76109, 56.541806]}, "type": "none", "coords_3021": [1435768.0, 6268748.0], "name": "7", "description": ""}, {"geometry": {"decimalLongitude": 14.722783, "decimalLatitude": 56.535191, "type": "Point", "coordinates": [14.722783, 56.535191]}, "type": "none", "coords_3021": [1433400.0, 6268048.0], "name": "8", "description": ""}, {"geometry": {"decimalLongitude": 14.697411, "decimalLatitude": 56.517939, "type": "Point", "coordinates": [14.697411, 56.517939]}, "type": "none", "coords_3021": [1431808.0, 6266152.0], "name": "9", "description": ""}, {"geometry": {"decimalLongitude": 14.70145, "decimalLatitude": 56.493007, "type": "Point", "coordinates": [14.70145, 56.493007]}, "type": "none", "coords_3021": [1432012.0, 6263372.0], "name": "10", "description": ""}, {"geometry": {"decimalLongitude": 14.713951, "decimalLatitude": 56.453492, "type": "Point", "coordinates": [14.713951, 56.453492]}, "type": "none", "coords_3021": [1432712.0, 6258960.0], "name": "11", "description": ""}, {"geometry": {"decimalLongitude": 14.73524, "decimalLatitude": 56.434709, "type": "Point", "coordinates": [14.73524, 56.434709]}, "type": "none", "coords_3021": [1433992.0, 6256848.0], "name": "12", "description": ""}, {"geometry": {"decimalLongitude": 14.749591, "decimalLatitude": 56.417588, "type": "Point", "coordinates": [14.749591, 56.417588]}, "type": "none", "coords_3021": [1434848.0, 6254928.0], "name": "13", "description": ""}, {"geometry": {"decimalLongitude": 14.783277, "decimalLatitude": 56.420637, "type": "Point", "coordinates": [14.783277, 56.420637]}, "type": "none", "coords_3021": [1436932.0, 6255236.0], "name": "14", "description": ""}, {"geometry": {"decimalLongitude": 14.81567, "decimalLatitude": 56.436276, "type": "Point", "coordinates": [14.81567, 56.436276]}, "type": "none", "coords_3021": [1438956.0, 6256948.0], "name": "15", "description": ""}, {"geometry": {"decimalLongitude": 14.821265, "decimalLatitude": 56.458126, "type": "Point", "coordinates": [14.821265, 56.458126]}, "type": "none", "coords_3021": [1439336.0, 6259376.0], "name": "16", "description": ""}, {"geometry": {"decimalLongitude": 14.819973, "decimalLatitude": 56.480425, "type": "Point", "coordinates": [14.819973, 56.480425]}, "type": "none", "coords_3021": [1439292.0, 6261860.0], "name": "17", "description": ""}, {"geometry": {"decimalLongitude": 14.819562, "decimalLatitude": 56.501258, "type": "Point", "coordinates": [14.819562, 56.501258]}, "type": "none", "coords_3021": [1439300.0, 6264180.0], "name": "18", "description": ""}, {"geometry": {"decimalLongitude": 14.823678, "decimalLatitude": 56.517924, "type": "Point", "coordinates": [14.823678, 56.517924]}, "type": "none", "coords_3021": [1439580.0, 6266032.0], "name": "19", "description": ""}, {"geometry": {"decimalLongitude": 14.8515, "decimalLatitude": 56.543431, "type": "Point", "coordinates": [14.8515, 56.543431]}, "type": "none", "coords_3021": [1441332.0, 6268848.0], "name": "20", "description": ""}], "name": "04ESO, Urshult, Tingsryds kn", "area": "0", "commonName": "Urshult, Tingsryds kn", "yearStarted": 2010, "type": ""}, {"status": "active", "description": "", "geoIndex": {"type": "Point", "coordinates": [14.010978, 57.0, 6.0]}, "siteId": "bbc6d265-a072-4838-883b-eed1948d4cce", "extent": {"geometry": {"decimalLongitude": 14.010978, "decimalLatitude": 57.0, "centre": [14.010978, 57.0, 6.0], "aream2": 0, "type": "Point", "coordinates": [14.010978, 57.0, 6.0], "areaKmSq": 0}, "source": "Point"}, "kartaTx": "05DNO", "projects": ["d0b2f329-c394-464b-b5ab-e1e205585a7c"], "transectParts": [{"geometry": {"decimalLongitude": 14.051684, "decimalLatitude": 57.178273, "type": "Point", "coordinates": [14.051684, 57.178273]}, "type": "none", "coords_3021": [1393950.0, 6340500.0], "name": "1 - Apladalen", "description": ""}, {"geometry": {"decimalLongitude": 14.044592, "decimalLatitude": 57.101383, "type": "Point", "coordinates": [14.044592, 57.101383]}, "type": "none", "coords_3021": [1393300.0, 6331950.0], "name": "2 - Tånnö pir R1", "description": ""}, {"geometry": {"decimalLongitude": 14.089038, "decimalLatitude": 57.103796, "type": "Point", "coordinates": [14.089038, 57.103796]}, "type": "none", "coords_3021": [1396000.0, 6332150.0], "name": "3 - Hyltan", "description": ""}, {"geometry": {"decimalLongitude": 14.146469, "decimalLatitude": 57.148128, "type": "Point", "coordinates": [14.146469, 57.148128]}, "type": "none", "coords_3021": [1399600.0, 6337000.0], "name": "4 - Drömminge X", "description": ""}, {"geometry": {"decimalLongitude": 14.134668, "decimalLatitude": 57.189959, "type": "Point", "coordinates": [14.134668, 57.189959]}, "type": "none", "coords_3021": [1399000.0, 6341675.0], "name": "5 - Hindsekind", "description": ""}, {"geometry": {"decimalLongitude": 14.098407, "decimalLatitude": 57.222925, "type": "Point", "coordinates": [14.098407, 57.222925]}, "type": "none", "coords_3021": [1396900.0, 6345400.0], "name": "6 - Hov X", "description": ""}, {"geometry": {"decimalLongitude": 14.115726, "decimalLatitude": 57.242469, "type": "Point", "coordinates": [14.115726, 57.242469]}, "type": "none", "coords_3021": [1398000.0, 6347550.0], "name": "7 - Sköndal", "description": ""}, {"geometry": {"decimalLongitude": 14.117617, "decimalLatitude": 57.264498, "type": "Point", "coordinates": [14.117617, 57.264498]}, "type": "none", "coords_3021": [1398175.0, 6350000.0], "name": "8 - Ya-vägen", "description": ""}, {"geometry": {"decimalLongitude": 14.032559, "decimalLatitude": 57.249495, "type": "Point", "coordinates": [14.032559, 57.249495]}, "type": "none", "coords_3021": [1393000.0, 6348460.0], "name": "9 - Jonsingsgård", "description": ""}, {"geometry": {"decimalLongitude": 13.958481, "decimalLatitude": 57.246452, "type": "Point", "coordinates": [13.958481, 57.246452]}, "type": "none", "coords_3021": [1388520.0, 6348240.0], "name": "10 - Maramö N", "description": ""}, {"geometry": {"decimalLongitude": 13.995855, "decimalLatitude": 57.227596, "type": "Point", "coordinates": [13.995855, 57.227596]}, "type": "none", "coords_3021": [1390720.0, 6346080.0], "name": "11 - Vällersten", "description": ""}, {"geometry": {"decimalLongitude": 13.966199, "decimalLatitude": 57.201299, "type": "Point", "coordinates": [13.966199, 57.201299]}, "type": "none", "coords_3021": [1388850.0, 6343200.0], "name": "12 - Svinanäs", "description": ""}, {"geometry": {"decimalLongitude": 13.933307, "decimalLatitude": 57.184196, "type": "Point", "coordinates": [13.933307, 57.184196]}, "type": "none", "coords_3021": [1386810.0, 6341350.0], "name": "13 - Sjögläntan", "description": ""}, {"geometry": {"decimalLongitude": 13.877616, "decimalLatitude": 57.205448, "type": "Point", "coordinates": [13.877616, 57.205448]}, "type": "none", "coords_3021": [1383510.0, 6343810.0], "name": "14 - Ekåsen", "description": ""}, {"geometry": {"decimalLongitude": 13.842624, "decimalLatitude": 57.175625, "type": "Point", "coordinates": [13.842624, 57.175625]}, "type": "none", "coords_3021": [1381300.0, 6340550.0], "name": "15 - Fänestad", "description": ""}, {"geometry": {"decimalLongitude": 13.855737, "decimalLatitude": 57.146459, "type": "Point", "coordinates": [13.855737, 57.146459]}, "type": "none", "coords_3021": [1382000.0, 6337280.0], "name": "16 - Spångö", "description": ""}, {"geometry": {"decimalLongitude": 13.894354, "decimalLatitude": 57.126575, "type": "Point", "coordinates": [13.894354, 57.126575]}, "type": "none", "coords_3021": [1384275.0, 6335000.0], "name": "17 - G:la Åminne", "description": ""}, {"geometry": {"decimalLongitude": 13.947133, "decimalLatitude": 57.098269, "type": "Point", "coordinates": [13.947133, 57.098269]}, "type": "none", "coords_3021": [1387385.0, 6331760.0], "name": "18 - Torsbg/Kylah.", "description": ""}, {"geometry": {"decimalLongitude": 14.01033, "decimalLatitude": 57.13076, "type": "Point", "coordinates": [14.01033, 57.13076]}, "type": "none", "coords_3021": [1391310.0, 6335275.0], "name": "19 - Tjutaryd", "description": ""}, {"geometry": {"decimalLongitude": 14.044973, "decimalLatitude": 57.162911, "type": "Point", "coordinates": [14.044973, 57.162911]}, "type": "none", "coords_3021": [1393500.0, 6338800.0], "name": "20 - Osudden", "description": ""}], "name": "05DNO, Värnamoområdet", "area": "0", "commonName": "Värnamoområdet", "yearStarted": 2010, "type": ""}, {"status": "active", "description": "", "geoIndex": {"type": "Point", "coordinates": [14.405484, 57.0, 6.0]}, "siteId": "c5c2229d-efc6-4860-be5d-244cf65b663e", "extent": {"geometry": {"decimalLongitude": 14.405484, "decimalLatitude": 57.0, "centre": [14.405484, 57.0, 6.0], "aream2": 0, "type": "Point", "coordinates": [14.405484, 57.0, 6.0], "areaKmSq": 0}, "source": "Point"}, "kartaTx": "05ESV", "projects": ["d0b2f329-c394-464b-b5ab-e1e205585a7c"], "transectParts": [{"geometry": {"decimalLongitude": 14.517688, "decimalLatitude": 57.005854, "type": "Point", "coordinates": [14.517688, 57.005854]}, "type": "none", "coords_3021": [1421768.0, 6320672.0], "name": "1 - Hössjö Södra", "description": ""}, {"geometry": {"decimalLongitude": 14.494852, "decimalLatitude": 57.02524, "type": "Point", "coordinates": [14.494852, 57.02524]}, "type": "none", "coords_3021": [1420422.0, 6322857.0], "name": "2 - Berg (Missionshus)", "description": ""}, {"geometry": {"decimalLongitude": 14.440089, "decimalLatitude": 57.012432, "type": "Point", "coordinates": [14.440089, 57.012432]}, "type": "none", "coords_3021": [1417068.0, 6321496.0], "name": "3 - Stenshult (Korsningen)", "description": ""}, {"geometry": {"decimalLongitude": 14.393788, "decimalLatitude": 57.00529, "type": "Point", "coordinates": [14.393788, 57.00529]}, "type": "none", "coords_3021": [1414239.0, 6320758.0], "name": "4 - Agnarydssjön (östra infart)", "description": ""}, {"geometry": {"decimalLongitude": 14.362298, "decimalLatitude": 57.004939, "type": "Point", "coordinates": [14.362298, 57.004939]}, "type": "none", "coords_3021": [1412325.0, 6320759.0], "name": "5 - Loshyltan (infart)", "description": ""}, {"geometry": {"decimalLongitude": 14.32899, "decimalLatitude": 56.991528, "type": "Point", "coordinates": [14.32899, 56.991528]}, "type": "none", "coords_3021": [1410269.0, 6319309.0], "name": "6 - Sävrarp (dammkorsning)", "description": ""}, {"geometry": {"decimalLongitude": 14.279644, "decimalLatitude": 56.980733, "type": "Point", "coordinates": [14.279644, 56.980733]}, "type": "none", "coords_3021": [1407243.0, 6318173.0], "name": "7 - Nederled (Kungshall P-plats)", "description": ""}, {"geometry": {"decimalLongitude": 14.286016, "decimalLatitude": 56.960388, "type": "Point", "coordinates": [14.286016, 56.960388]}, "type": "none", "coords_3021": [1407580.0, 6315899.0], "name": "8 - Luveryd (Norra milstenen)", "description": ""}, {"geometry": {"decimalLongitude": 14.285109, "decimalLatitude": 56.937466, "type": "Point", "coordinates": [14.285109, 56.937466]}, "type": "none", "coords_3021": [1407468.0, 6313348.0], "name": "9 - Linnås (söder backen)", "description": ""}, {"geometry": {"decimalLongitude": 14.277268, "decimalLatitude": 56.913875, "type": "Point", "coordinates": [14.277268, 56.913875]}, "type": "none", "coords_3021": [1406932.0, 6310732.0], "name": "10 - Stammaderna (Helge å)", "description": ""}, {"geometry": {"decimalLongitude": 14.267571, "decimalLatitude": 56.898937, "type": "Point", "coordinates": [14.267571, 56.898937]}, "type": "none", "coords_3021": [1406304.0, 6309082.0], "name": "11 - Malaberg (Ljungabo göl)", "description": ""}, {"geometry": {"decimalLongitude": 14.361857, "decimalLatitude": 56.915618, "type": "Point", "coordinates": [14.361857, 56.915618]}, "type": "none", "coords_3021": [1412088.0, 6310814.0], "name": "12 - Älganäs (södra sjöände)", "description": ""}, {"geometry": {"decimalLongitude": 14.350789, "decimalLatitude": 56.93505, "type": "Point", "coordinates": [14.350789, 56.93505]}, "type": "none", "coords_3021": [1411460.0, 6312992.0], "name": "13 - Sörhult", "description": ""}, {"geometry": {"decimalLongitude": 14.369658, "decimalLatitude": 56.957892, "type": "Point", "coordinates": [14.369658, 56.957892]}, "type": "none", "coords_3021": [1412662.0, 6315511.0], "name": "14 - Spånhyltan öster", "description": ""}, {"geometry": {"decimalLongitude": 14.400465, "decimalLatitude": 56.96134, "type": "Point", "coordinates": [14.400465, 56.96134]}, "type": "none", "coords_3021": [1414544.0, 6315856.0], "name": "15 - Korsmon", "description": ""}, {"geometry": {"decimalLongitude": 14.41774, "decimalLatitude": 56.984848, "type": "Point", "coordinates": [14.41774, 56.984848]}, "type": "none", "coords_3021": [1415648.0, 6318452.0], "name": "16 - Mexarp Fågeltorn (Bron)", "description": ""}, {"geometry": {"decimalLongitude": 14.436625, "decimalLatitude": 56.957951, "type": "Point", "coordinates": [14.436625, 56.957951]}, "type": "none", "coords_3021": [1416736.0, 6315434.0], "name": "17 - Exhult (Myrkanten)", "description": ""}, {"geometry": {"decimalLongitude": 14.469463, "decimalLatitude": 56.926415, "type": "Point", "coordinates": [14.469463, 56.926415]}, "type": "none", "coords_3021": [1418665.0, 6311883.0], "name": "18 - Hjortsberga kyrka (W kyrkgöl)", "description": ""}, {"geometry": {"decimalLongitude": 14.520629, "decimalLatitude": 56.94777, "type": "Point", "coordinates": [14.520629, 56.94777]}, "type": "none", "coords_3021": [1421825.0, 6314201.0], "name": "19 - Sköldstad (Karlsborg)", "description": ""}, {"geometry": {"decimalLongitude": 14.548778, "decimalLatitude": 56.937072, "type": "Point", "coordinates": [14.548778, 56.937072]}, "type": "none", "coords_3021": [1423516.0, 6312978.0], "name": "20 - Hjärtanäs (nordväst ån)", "description": ""}], "name": "05ESV, Rydaholm", "area": "0", "commonName": "Rydaholm", "yearStarted": 2010, "type": ""}, {"status": "active", "description": "", "geoIndex": {"type": "Point", "coordinates": [15.189359, 57.0, 6.0]}, "siteId": "2f1d9a38-bc9a-48f5-9477-ab43b66276a6", "extent": {"geometry": {"decimalLongitude": 15.189359, "decimalLatitude": 57.0, "centre": [15.189359, 57.0, 6.0], "aream2": 0, "type": "Point", "coordinates": [15.189359, 57.0, 6.0], "areaKmSq": 0}, "source": "Point"}, "kartaTx": "05FNV", "projects": ["d0b2f329-c394-464b-b5ab-e1e205585a7c"], "transectParts": [{"geometry": {"decimalLongitude": 15.057131, "decimalLatitude": 57.073752, "type": "Point", "coordinates": [15.057131, 57.073752]}, "type": "none", "coords_3021": [1454627.0, 6327744.0], "name": "1", "description": ""}, {"geometry": {"decimalLongitude": 15.068226, "decimalLatitude": 57.093762, "type": "Point", "coordinates": [15.068226, 57.093762]}, "type": "none", "coords_3021": [1455324.0, 6329965.0], "name": "2", "description": ""}, {"geometry": {"decimalLongitude": 15.074407, "decimalLatitude": 57.118305, "type": "Point", "coordinates": [15.074407, 57.118305]}, "type": "none", "coords_3021": [1455728.0, 6332694.0], "name": "3", "description": ""}, {"geometry": {"decimalLongitude": 15.096856, "decimalLatitude": 57.146056, "type": "Point", "coordinates": [15.096856, 57.146056]}, "type": "none", "coords_3021": [1457120.0, 6335770.0], "name": "4", "description": ""}, {"geometry": {"decimalLongitude": 15.151777, "decimalLatitude": 57.145556, "type": "Point", "coordinates": [15.151777, 57.145556]}, "type": "none", "coords_3021": [1460444.0, 6335681.0], "name": "5", "description": ""}, {"geometry": {"decimalLongitude": 15.188048, "decimalLatitude": 57.133087, "type": "Point", "coordinates": [15.188048, 57.133087]}, "type": "none", "coords_3021": [1462627.0, 6334272.0], "name": "6", "description": ""}, {"geometry": {"decimalLongitude": 15.217923, "decimalLatitude": 57.138205, "type": "Point", "coordinates": [15.217923, 57.138205]}, "type": "none", "coords_3021": [1464441.0, 6334826.0], "name": "7", "description": ""}, {"geometry": {"decimalLongitude": 15.221688, "decimalLatitude": 57.158167, "type": "Point", "coordinates": [15.221688, 57.158167]}, "type": "none", "coords_3021": [1464688.0, 6337047.0], "name": "8", "description": ""}, {"geometry": {"decimalLongitude": 15.249027, "decimalLatitude": 57.158875, "type": "Point", "coordinates": [15.249027, 57.158875]}, "type": "none", "coords_3021": [1466343.0, 6337112.0], "name": "9", "description": ""}, {"geometry": {"decimalLongitude": 15.290542, "decimalLatitude": 57.157445, "type": "Point", "coordinates": [15.290542, 57.157445]}, "type": "none", "coords_3021": [1468854.0, 6336933.0], "name": "10", "description": ""}, {"geometry": {"decimalLongitude": 15.274435, "decimalLatitude": 57.123731, "type": "Point", "coordinates": [15.274435, 57.123731]}, "type": "none", "coords_3021": [1467850.0, 6333186.0], "name": "11", "description": ""}, {"geometry": {"decimalLongitude": 15.300987, "decimalLatitude": 57.113747, "type": "Point", "coordinates": [15.300987, 57.113747]}, "type": "none", "coords_3021": [1469450.0, 6332062.0], "name": "12", "description": ""}, {"geometry": {"decimalLongitude": 15.328126, "decimalLatitude": 57.104443, "type": "Point", "coordinates": [15.328126, 57.104443]}, "type": "none", "coords_3021": [1471087.0, 6331014.0], "name": "13", "description": ""}, {"geometry": {"decimalLongitude": 15.353516, "decimalLatitude": 57.080588, "type": "Point", "coordinates": [15.353516, 57.080588]}, "type": "none", "coords_3021": [1472608.0, 6328347.0], "name": "14", "description": ""}, {"geometry": {"decimalLongitude": 15.314521, "decimalLatitude": 57.081375, "type": "Point", "coordinates": [15.314521, 57.081375]}, "type": "none", "coords_3021": [1470244.0, 6328451.0], "name": "15", "description": ""}, {"geometry": {"decimalLongitude": 15.277141, "decimalLatitude": 57.08565, "type": "Point", "coordinates": [15.277141, 57.08565]}, "type": "none", "coords_3021": [1467981.0, 6328944.0], "name": "16", "description": ""}, {"geometry": {"decimalLongitude": 15.247008, "decimalLatitude": 57.09114, "type": "Point", "coordinates": [15.247008, 57.09114]}, "type": "none", "coords_3021": [1466159.0, 6329570.0], "name": "17", "description": ""}, {"geometry": {"decimalLongitude": 15.159979, "decimalLatitude": 57.080628, "type": "Point", "coordinates": [15.159979, 57.080628]}, "type": "none", "coords_3021": [1460872.0, 6328446.0], "name": "18", "description": ""}, {"geometry": {"decimalLongitude": 15.126381, "decimalLatitude": 57.070115, "type": "Point", "coordinates": [15.126381, 57.070115]}, "type": "none", "coords_3021": [1458823.0, 6327295.0], "name": "19", "description": ""}, {"geometry": {"decimalLongitude": 15.091088, "decimalLatitude": 57.069083, "type": "Point", "coordinates": [15.091088, 57.069083]}, "type": "none", "coords_3021": [1456681.0, 6327202.0], "name": "20", "description": ""}], "name": "05FNV, Åseda", "area": "0", "commonName": "Åseda", "yearStarted": 2012, "type": ""}, {"status": "active", "description": "Idhultesjön", "geoIndex": {"type": "Point", "coordinates": [16.108535, 57.0, 6.0]}, "siteId": "556e65c5-918a-4846-9754-0d4d9974b17b", "extent": {"geometry": {"decimalLongitude": 16.108535, "decimalLatitude": 57.0, "centre": [16.108535, 57.0, 6.0], "aream2": 0, "type": "Point", "coordinates": [16.108535, 57.0, 6.0], "areaKmSq": 0},